{
"type": "FeatureCollection",
"name": "Coleraine_Northern_Ireland_amenities",
"crs": { "type": "name", "properties": { "name": "urn:ogc:def:crs:OGC:1.3:CRS84" } },
"features": [
{ "type": "Feature", "properties": { "id": 506151536, "name": "Moksh", "amenity": "restaurant" }, "geometry": { "type": "Point", "coordinates": [ -6.6744695, 55.121702 ] } },
{ "type": "Feature", "properties": { "id": 551448836, "name": "Moviehouse", "amenity": "cinema" }, "geometry": { "type": "Point", "coordinates": [ -6.6780949, 55.119869899999983 ] } },
{ "type": "Feature", "properties": { "id": 551448845, "name": "Boots", "amenity": "pharmacy" }, "geometry": { "type": "Point", "coordinates": [ -6.6544177, 55.127684 ] } },
{ "type": "Feature", "properties": { "id": 761293651, "name": "Queens Arms", "amenity": "pub" }, "geometry": { "type": "Point", "coordinates": [ -6.6729204, 55.1316969 ] } },
{ "type": "Feature", "properties": { "id": 761293759, "name": null, "amenity": "recycling" }, "geometry": { "type": "Point", "coordinates": [ -6.6754082, 55.1210566 ] } },
{ "type": "Feature", "properties": { "id": 761293771, "name": null, "amenity": "parking" }, "geometry": { "type": "Point", "coordinates": [ -6.6817704, 55.1193788 ] } },
{ "type": "Feature", "properties": { "id": 761293774, "name": "The Bridge", "amenity": "pub" }, "geometry": { "type": "Point", "coordinates": [ -6.6768139, 55.1319911 ] } },
{ "type": "Feature", "properties": { "id": 761293809, "name": "Coast Chemists", "amenity": "pharmacy" }, "geometry": { "type": "Point", "coordinates": [ -6.6771654, 55.1320911 ] } },
{ "type": "Feature", "properties": { "id": 761293855, "name": "Causeway Coast Vineyard", "amenity": "place_of_worship" }, "geometry": { "type": "Point", "coordinates": [ -6.6564658, 55.1298308 ] } },
{ "type": "Feature", "properties": { "id": 761293869, "name": null, "amenity": "taxi" }, "geometry": { "type": "Point", "coordinates": [ -6.6628135, 55.1337441 ] } },
{ "type": "Feature", "properties": { "id": 761293898, "name": "Railway Arms", "amenity": "pub" }, "geometry": { "type": "Point", "coordinates": [ -6.6634874, 55.1340552 ] } },
{ "type": "Feature", "properties": { "id": 761293919, "name": null, "amenity": "post_box" }, "geometry": { "type": "Point", "coordinates": [ -6.6821287, 55.1193164 ] } },
{ "type": "Feature", "properties": { "id": 761293924, "name": "Greenmount Post Office", "amenity": "post_office" }, "geometry": { "type": "Point", "coordinates": [ -6.6822128, 55.1194177 ] } },
{ "type": "Feature", "properties": { "id": 761293964, "name": null, "amenity": "post_box" }, "geometry": { "type": "Point", "coordinates": [ -6.6859539, 55.1197426 ] } },
{ "type": "Feature", "properties": { "id": 766574642, "name": "Gareths", "amenity": "fast_food" }, "geometry": { "type": "Point", "coordinates": [ -6.6789639, 55.1324483 ] } },
{ "type": "Feature", "properties": { "id": 766574892, "name": "Waterside Post Office", "amenity": "post_office" }, "geometry": { "type": "Point", "coordinates": [ -6.6788659, 55.1326798 ] } },
{ "type": "Feature", "properties": { "id": 766575148, "name": "Santander", "amenity": "bank" }, "geometry": { "type": "Point", "coordinates": [ -6.6719737, 55.131241599999989 ] } },
{ "type": "Feature", "properties": { "id": 766578213, "name": "Coopers", "amenity": "bar" }, "geometry": { "type": "Point", "coordinates": [ -6.6696735, 55.1287233 ] } },
{ "type": "Feature", "properties": { "id": 766578853, "name": "Domino's", "amenity": "fast_food" }, "geometry": { "type": "Point", "coordinates": [ -6.6707566, 55.129221 ] } },
{ "type": "Feature", "properties": { "id": 766581821, "name": "The Burger Dock", "amenity": "fast_food" }, "geometry": { "type": "Point", "coordinates": [ -6.6733818, 55.1318595 ] } },
{ "type": "Feature", "properties": { "id": 766606398, "name": "Ground", "amenity": "cafe" }, "geometry": { "type": "Point", "coordinates": [ -6.6668593, 55.1317356 ] } },
{ "type": "Feature", "properties": { "id": 766607819, "name": "Boots", "amenity": "pharmacy" }, "geometry": { "type": "Point", "coordinates": [ -6.6691066, 55.1318562 ] } },
{ "type": "Feature", "properties": { "id": 766635484, "name": null, "amenity": "telephone" }, "geometry": { "type": "Point", "coordinates": [ -6.672048, 55.1321565 ] } },
{ "type": "Feature", "properties": { "id": 770109361, "name": "Bebrown", "amenity": "tanning_salon" }, "geometry": { "type": "Point", "coordinates": [ -6.6784635, 55.1322521 ] } },
{ "type": "Feature", "properties": { "id": 1578762327, "name": "Chequers", "amenity": "fast_food" }, "geometry": { "type": "Point", "coordinates": [ -6.6657481, 55.1395247 ] } },
{ "type": "Feature", "properties": { "id": 1579297084, "name": "Pizza Pomodoro", "amenity": "restaurant" }, "geometry": { "type": "Point", "coordinates": [ -6.6761113, 55.1317436 ] } },
{ "type": "Feature", "properties": { "id": 1615777578, "name": null, "amenity": "telephone" }, "geometry": { "type": "Point", "coordinates": [ -6.6672663, 55.1425116 ] } },
{ "type": "Feature", "properties": { "id": 1615777583, "name": null, "amenity": "post_box" }, "geometry": { "type": "Point", "coordinates": [ -6.667251, 55.1425118 ] } },
{ "type": "Feature", "properties": { "id": 1625393489, "name": null, "amenity": "toilets" }, "geometry": { "type": "Point", "coordinates": [ -6.6697856, 55.1320052 ] } },
{ "type": "Feature", "properties": { "id": 1660397663, "name": "The Roost", "amenity": "pub" }, "geometry": { "type": "Point", "coordinates": [ -6.6761523, 55.128215 ] } },
{ "type": "Feature", "properties": { "id": 1660416200, "name": "Elim Church", "amenity": "place_of_worship" }, "geometry": { "type": "Point", "coordinates": [ -6.6782498, 55.1305919 ] } },
{ "type": "Feature", "properties": { "id": 1999483875, "name": "Danske Bank", "amenity": "bank" }, "geometry": { "type": "Point", "coordinates": [ -6.6717727, 55.1318017 ] } },
{ "type": "Feature", "properties": { "id": 2042058396, "name": null, "amenity": "post_box" }, "geometry": { "type": "Point", "coordinates": [ -6.6537882, 55.1439443 ] } },
{ "type": "Feature", "properties": { "id": 3590734766, "name": null, "amenity": "picnic_table" }, "geometry": { "type": "Point", "coordinates": [ -6.6798102, 55.149758 ] } },
{ "type": "Feature", "properties": { "id": 3590734767, "name": null, "amenity": "picnic_table" }, "geometry": { "type": "Point", "coordinates": [ -6.6796975, 55.149801 ] } },
{ "type": "Feature", "properties": { "id": 3590736801, "name": "Flow & Co", "amenity": "restaurant" }, "geometry": { "type": "Point", "coordinates": [ -6.677319, 55.1481794 ] } },
{ "type": "Feature", "properties": { "id": 3590736810, "name": null, "amenity": "picnic_table" }, "geometry": { "type": "Point", "coordinates": [ -6.6795688, 55.1496937 ] } },
{ "type": "Feature", "properties": { "id": 3595388165, "name": "Captain's Bar", "amenity": "pub" }, "geometry": { "type": "Point", "coordinates": [ -6.6776669, 55.1318519 ] } },
{ "type": "Feature", "properties": { "id": 3678941030, "name": null, "amenity": "shelter" }, "geometry": { "type": "Point", "coordinates": [ -6.668437, 55.150401 ] } },
{ "type": "Feature", "properties": { "id": 3980680742, "name": null, "amenity": "post_box" }, "geometry": { "type": "Point", "coordinates": [ -6.6534056, 55.1272544 ] } },
{ "type": "Feature", "properties": { "id": 4294347489, "name": "Pear Tree", "amenity": "cafe" }, "geometry": { "type": "Point", "coordinates": [ -6.6665027, 55.1319044 ] } },
{ "type": "Feature", "properties": { "id": 4407840269, "name": "Giddy Goat", "amenity": "restaurant" }, "geometry": { "type": "Point", "coordinates": [ -6.6775653, 55.1318468 ] } },
{ "type": "Feature", "properties": { "id": 4472726385, "name": "Cafe Causeway", "amenity": "cafe" }, "geometry": { "type": "Point", "coordinates": [ -6.6511282, 55.1246397 ] } },
{ "type": "Feature", "properties": { "id": 4748863514, "name": null, "amenity": "playground" }, "geometry": { "type": "Point", "coordinates": [ -6.6636002, 55.139197099999983 ] } },
{ "type": "Feature", "properties": { "id": 5189443139, "name": null, "amenity": "post_box" }, "geometry": { "type": "Point", "coordinates": [ -6.6822671, 55.1351484 ] } },
{ "type": "Feature", "properties": { "id": 5302274086, "name": "Rocca", "amenity": "cafe" }, "geometry": { "type": "Point", "coordinates": [ -6.6732179, 55.131725099999983 ] } },
{ "type": "Feature", "properties": { "id": 5302274089, "name": "Caffè Nero", "amenity": "cafe" }, "geometry": { "type": "Point", "coordinates": [ -6.6698191, 55.1318217 ] } },
{ "type": "Feature", "properties": { "id": 5302520785, "name": "Chequers", "amenity": "fast_food" }, "geometry": { "type": "Point", "coordinates": [ -6.6677637, 55.1289849 ] } },
{ "type": "Feature", "properties": { "id": 5302657556, "name": "Ballymena Causeway Credit Union", "amenity": "bank" }, "geometry": { "type": "Point", "coordinates": [ -6.6720969, 55.1303206 ] } },
{ "type": "Feature", "properties": { "id": 5302669314, "name": "Sun Do", "amenity": "restaurant" }, "geometry": { "type": "Point", "coordinates": [ -6.6700651, 55.1294894 ] } },
{ "type": "Feature", "properties": { "id": 5309314870, "name": "Subway", "amenity": "fast_food" }, "geometry": { "type": "Point", "coordinates": [ -6.6742919, 55.1218357 ] } },
{ "type": "Feature", "properties": { "id": 5309314916, "name": "The Sandpiper", "amenity": "restaurant" }, "geometry": { "type": "Point", "coordinates": [ -6.6716837, 55.1215563 ] } },
{ "type": "Feature", "properties": { "id": 5312683448, "name": "hullabaloos", "amenity": "restaurant" }, "geometry": { "type": "Point", "coordinates": [ -6.6745449, 55.1216452 ] } },
{ "type": "Feature", "properties": { "id": 5312683449, "name": "Chequers", "amenity": "restaurant" }, "geometry": { "type": "Point", "coordinates": [ -6.6743593, 55.1217849 ] } },
{ "type": "Feature", "properties": { "id": 5312757636, "name": "Alley Cats", "amenity": "indoor_play" }, "geometry": { "type": "Point", "coordinates": [ -6.6776376, 55.1189732 ] } },
{ "type": "Feature", "properties": { "id": 5320646135, "name": null, "amenity": "playground" }, "geometry": { "type": "Point", "coordinates": [ -6.6531353, 55.1207711 ] } },
{ "type": "Feature", "properties": { "id": 5465491869, "name": "Infuse Artisan Tea", "amenity": "cafe" }, "geometry": { "type": "Point", "coordinates": [ -6.6734153, 55.1317583 ] } },
{ "type": "Feature", "properties": { "id": 5795882866, "name": "The Orchard", "amenity": "cafe" }, "geometry": { "type": "Point", "coordinates": [ -6.6694085, 55.1318416 ] } },
{ "type": "Feature", "properties": { "id": 5795885270, "name": "Ulster Bank", "amenity": "bank" }, "geometry": { "type": "Point", "coordinates": [ -6.6711352, 55.1318495 ] } },
{ "type": "Feature", "properties": { "id": 5795948887, "name": "Greggs", "amenity": "fast_food" }, "geometry": { "type": "Point", "coordinates": [ -6.6694631, 55.1315772 ] } },
{ "type": "Feature", "properties": { "id": 5795949203, "name": "Bob & Berts", "amenity": "cafe" }, "geometry": { "type": "Point", "coordinates": [ -6.6708738, 55.131869099999989 ] } },
{ "type": "Feature", "properties": { "id": 5795949209, "name": "ClearPharmacy", "amenity": "pharmacy" }, "geometry": { "type": "Point", "coordinates": [ -6.6762439, 55.1319566 ] } },
{ "type": "Feature", "properties": { "id": 5795949214, "name": "Solo", "amenity": "fuel" }, "geometry": { "type": "Point", "coordinates": [ -6.6764458, 55.1311289 ] } },
{ "type": "Feature", "properties": { "id": 5795986961, "name": "The Clyde Tavern", "amenity": "pub" }, "geometry": { "type": "Point", "coordinates": [ -6.6645782, 55.1335671 ] } },
{ "type": "Feature", "properties": { "id": 5795988739, "name": "The Sandwich Co", "amenity": "cafe" }, "geometry": { "type": "Point", "coordinates": [ -6.6659746, 55.1321073 ] } },
{ "type": "Feature", "properties": { "id": 5795988743, "name": "Subway", "amenity": "fast_food" }, "geometry": { "type": "Point", "coordinates": [ -6.6654597, 55.132245199999986 ] } },
{ "type": "Feature", "properties": { "id": 5795988744, "name": "HSBC UK", "amenity": "bank" }, "geometry": { "type": "Point", "coordinates": [ -6.6654557, 55.1327077 ] } },
{ "type": "Feature", "properties": { "id": 5825891172, "name": "New Row Dental", "amenity": "dentist" }, "geometry": { "type": "Point", "coordinates": [ -6.6702124, 55.1298569 ] } },
{ "type": "Feature", "properties": { "id": 5825891198, "name": "Gordons Chemists", "amenity": "pharmacy" }, "geometry": { "type": "Point", "coordinates": [ -6.6694871, 55.1313986 ] } },
{ "type": "Feature", "properties": { "id": 5832384976, "name": "Splash 'N' Dash", "amenity": "car_wash" }, "geometry": { "type": "Point", "coordinates": [ -6.6594415, 55.1383703 ] } },
{ "type": "Feature", "properties": { "id": 6178287871, "name": "Auto spa", "amenity": "car_wash" }, "geometry": { "type": "Point", "coordinates": [ -6.6567451, 55.1416092 ] } },
{ "type": "Feature", "properties": { "id": 6375698426, "name": null, "amenity": "bench" }, "geometry": { "type": "Point", "coordinates": [ -6.6849308, 55.129482199999984 ] } },
{ "type": "Feature", "properties": { "id": 7250947971, "name": "Boyd and Logue and Associates Dental Surgeons", "amenity": "dentist" }, "geometry": { "type": "Point", "coordinates": [ -6.6655726, 55.1315617 ] } },
{ "type": "Feature", "properties": { "id": 7500427096, "name": "Asda Café", "amenity": "cafe" }, "geometry": { "type": "Point", "coordinates": [ -6.6536257, 55.1272059 ] } },
{ "type": "Feature", "properties": { "id": 8572595528, "name": "ecar Charge Point", "amenity": "charging_station" }, "geometry": { "type": "Point", "coordinates": [ -6.6768665, 55.1324507 ] } },
{ "type": "Feature", "properties": { "id": 8572595529, "name": "ecar Charge Point", "amenity": "charging_station" }, "geometry": { "type": "Point", "coordinates": [ -6.6638684, 55.1336337 ] } },
{ "type": "Feature", "properties": { "id": 8789344463, "name": "Lir: Native Seafood & Scran", "amenity": "cafe" }, "geometry": { "type": "Point", "coordinates": [ -6.6758916, 55.1447847 ] } },
{ "type": "Feature", "properties": { "id": 8789344464, "name": "Coleraine Marina", "amenity": "marina" }, "geometry": { "type": "Point", "coordinates": [ -6.6760837, 55.144345299999983 ] } },
{ "type": "Feature", "properties": { "id": 8833289272, "name": "Cafe Pausa", "amenity": "cafe" }, "geometry": { "type": "Point", "coordinates": [ -6.672401, 55.1203963 ] } },
{ "type": "Feature", "properties": { "id": 9180164685, "name": null, "amenity": "post_box" }, "geometry": { "type": "Point", "coordinates": [ -6.6365742, 55.1099282 ] } },
{ "type": "Feature", "properties": { "id": 9182206667, "name": "Ground", "amenity": "cafe" }, "geometry": { "type": "Point", "coordinates": [ -6.6404057, 55.114891599999986 ] } },
{ "type": "Feature", "properties": { "id": 9228241539, "name": "The Fab Kebab", "amenity": "fast_food" }, "geometry": { "type": "Point", "coordinates": [ -6.6765781, 55.1319758 ] } },
{ "type": "Feature", "properties": { "id": 9228677130, "name": "Fyred Pizza", "amenity": "fast_food" }, "geometry": { "type": "Point", "coordinates": [ -6.6766799, 55.1319824 ] } },
{ "type": "Feature", "properties": { "id": 9228677131, "name": "Turf 'n' Surf Burgers", "amenity": "fast_food" }, "geometry": { "type": "Point", "coordinates": [ -6.6764544, 55.131967699999983 ] } },
{ "type": "Feature", "properties": { "id": 9228677132, "name": "ClearPharmacy", "amenity": "pharmacy" }, "geometry": { "type": "Point", "coordinates": [ -6.6767265, 55.131789 ] } },
{ "type": "Feature", "properties": { "id": 9251413919, "name": "Atlas Unisex Gym", "amenity": "fitness_centre" }, "geometry": { "type": "Point", "coordinates": [ -6.6785127, 55.1318601 ] } },
{ "type": "Feature", "properties": { "id": 9307303527, "name": "Jumplanes", "amenity": "trampoline_park" }, "geometry": { "type": "Point", "coordinates": [ -6.6539753, 55.131752 ] } },
{ "type": "Feature", "properties": { "id": 9307303528, "name": "Score Football Centres", "amenity": "sports_centre" }, "geometry": { "type": "Point", "coordinates": [ -6.6539592, 55.131577199999988 ] } },
{ "type": "Feature", "properties": { "id": 9310378852, "name": "Martha's House Cafe", "amenity": "cafe" }, "geometry": { "type": "Point", "coordinates": [ -6.6720502, 55.1310302 ] } },
{ "type": "Feature", "properties": { "id": 9311338815, "name": null, "amenity": "playground" }, "geometry": { "type": "Point", "coordinates": [ -6.6342525, 55.1188217 ] } },
{ "type": "Feature", "properties": { "id": 9376409964, "name": "Barn Door", "amenity": "cafe" }, "geometry": { "type": "Point", "coordinates": [ -6.6708695, 55.130817 ] } },
{ "type": "Feature", "properties": { "id": 9611120785, "name": "Max Gaming", "amenity": "casino" }, "geometry": { "type": "Point", "coordinates": [ -6.6635737, 55.1344895 ] } },
{ "type": "Feature", "properties": { "id": 9611124127, "name": "Farley's", "amenity": "pub" }, "geometry": { "type": "Point", "coordinates": [ -6.6638925, 55.1341481 ] } },
{ "type": "Feature", "properties": { "id": 9633816012, "name": "Turkish Kebab and Pizza Palace", "amenity": "fast_food" }, "geometry": { "type": "Point", "coordinates": [ -6.6643129, 55.1337131 ] } },
{ "type": "Feature", "properties": { "id": 9633836819, "name": "Malabar", "amenity": "fast_food" }, "geometry": { "type": "Point", "coordinates": [ -6.6645057, 55.13362 ] } },
{ "type": "Feature", "properties": { "id": 9646411755, "name": "Causeway Bowls", "amenity": "cafe" }, "geometry": { "type": "Point", "coordinates": [ -6.6645063, 55.132983 ] } },
{ "type": "Feature", "properties": { "id": 9646434444, "name": "Mandarin Palace", "amenity": "restaurant" }, "geometry": { "type": "Point", "coordinates": [ -6.6650369, 55.1331768 ] } },
{ "type": "Feature", "properties": { "id": 9700672500, "name": "Ground", "amenity": "cafe" }, "geometry": { "type": "Point", "coordinates": [ -6.6625601, 55.1334221 ] } },
{ "type": "Feature", "properties": { "id": 9722632903, "name": null, "amenity": "toilets" }, "geometry": { "type": "Point", "coordinates": [ -6.6689247, 55.1302371 ] } },
{ "type": "Feature", "properties": { "id": 9751721673, "name": "Apache Pizza", "amenity": "fast_food" }, "geometry": { "type": "Point", "coordinates": [ -6.6657166, 55.1320685 ] } },
{ "type": "Feature", "properties": { "id": 9751752172, "name": "Three Queens", "amenity": "ice_cream" }, "geometry": { "type": "Point", "coordinates": [ -6.6658979, 55.131923 ] } },
{ "type": "Feature", "properties": { "id": 9779595479, "name": "Sun Burst", "amenity": "tanning_salon" }, "geometry": { "type": "Point", "coordinates": [ -6.6697194, 55.1274108 ] } },
{ "type": "Feature", "properties": { "id": 9842014607, "name": "Cyclamen Chinese Takeaway", "amenity": "restaurant" }, "geometry": { "type": "Point", "coordinates": [ -6.6535081, 55.134044599999989 ] } },
{ "type": "Feature", "properties": { "id": 9850458019, "name": "Faith Mission Hall", "amenity": "place_of_worship" }, "geometry": { "type": "Point", "coordinates": [ -6.6659452, 55.1336351 ] } },
{ "type": "Feature", "properties": { "id": 9851510249, "name": "North West Fellowship Church", "amenity": "place_of_worship" }, "geometry": { "type": "Point", "coordinates": [ -6.6557705, 55.1335166 ] } },
{ "type": "Feature", "properties": { "id": 9864449954, "name": "Texaco", "amenity": "fuel" }, "geometry": { "type": "Point", "coordinates": [ -6.6911492, 55.1101009 ] } },
{ "type": "Feature", "properties": { "id": 9917440279, "name": "Mona Lisa", "amenity": "restaurant" }, "geometry": { "type": "Point", "coordinates": [ -6.6701484, 55.1302039 ] } },
{ "type": "Feature", "properties": { "id": 9959903715, "name": "Dennison Commercials", "amenity": "car_rental" }, "geometry": { "type": "Point", "coordinates": [ -6.6550101, 55.1422899 ] } },
{ "type": "Feature", "properties": { "id": 9980512562, "name": null, "amenity": "post_box" }, "geometry": { "type": "Point", "coordinates": [ -6.6709461, 55.1314827 ] } },
{ "type": "Feature", "properties": { "id": 9986609354, "name": "NII clean autocare", "amenity": "car_wash" }, "geometry": { "type": "Point", "coordinates": [ -6.6589107, 55.1401362 ] } },
{ "type": "Feature", "properties": { "id": 9986634080, "name": "Meat & Bread", "amenity": "fast_food" }, "geometry": { "type": "Point", "coordinates": [ -6.6627012, 55.1349963 ] } },
{ "type": "Feature", "properties": { "id": 9988261452, "name": null, "amenity": "post_box" }, "geometry": { "type": "Point", "coordinates": [ -6.6616404, 55.1284458 ] } },
{ "type": "Feature", "properties": { "id": 9995833775, "name": "Coleraine Post Office", "amenity": "post_office" }, "geometry": { "type": "Point", "coordinates": [ -6.6700033, 55.1309584 ] } },
{ "type": "Feature", "properties": { "id": 9995833776, "name": "Big O Cafe", "amenity": "cafe" }, "geometry": { "type": "Point", "coordinates": [ -6.6700033, 55.1308603 ] } },
{ "type": "Feature", "properties": { "id": 10019115608, "name": null, "amenity": "bench" }, "geometry": { "type": "Point", "coordinates": [ -6.6611978, 55.1427133 ] } },
{ "type": "Feature", "properties": { "id": 10073564119, "name": null, "amenity": "picnic_table" }, "geometry": { "type": "Point", "coordinates": [ -6.6775698, 55.152792099999985 ] } },
{ "type": "Feature", "properties": { "id": 10075447346, "name": null, "amenity": "vending_machine" }, "geometry": { "type": "Point", "coordinates": [ -6.6770006, 55.1525574 ] } },
{ "type": "Feature", "properties": { "id": 10905669050, "name": "Oasis", "amenity": "adult_gaming_centre" }, "geometry": { "type": "Point", "coordinates": [ -6.6644299, 55.1333913 ] } },
{ "type": "Feature", "properties": { "id": 10905682907, "name": "Cochrane Dental Care", "amenity": "dentist" }, "geometry": { "type": "Point", "coordinates": [ -6.6640343, 55.1338624 ] } },
{ "type": "Feature", "properties": { "id": 10905684080, "name": "The Music Rooms", "amenity": "music_school" }, "geometry": { "type": "Point", "coordinates": [ -6.6700086, 55.130768 ] } },
{ "type": "Feature", "properties": { "id": 10905690959, "name": "The dolphin", "amenity": "fast_food" }, "geometry": { "type": "Point", "coordinates": [ -6.6640003, 55.1338863 ] } },
{ "type": "Feature", "properties": { "id": 10905698645, "name": "Fung Loi", "amenity": "fast_food" }, "geometry": { "type": "Point", "coordinates": [ -6.6635518, 55.133993099999984 ] } },
{ "type": "Feature", "properties": { "id": 10905709007, "name": "Johnstone Dentists", "amenity": "dentist" }, "geometry": { "type": "Point", "coordinates": [ -6.6659504, 55.1321425 ] } },
{ "type": "Feature", "properties": { "id": 10908324256, "name": "Bentley Leisure", "amenity": "casino" }, "geometry": { "type": "Point", "coordinates": [ -6.6536597, 55.1334128 ] } },
{ "type": "Feature", "properties": { "id": 10915854292, "name": "The Golden Dragon", "amenity": "restaurant" }, "geometry": { "type": "Point", "coordinates": [ -6.6692648, 55.128731199999983 ] } },
{ "type": "Feature", "properties": { "id": 10931172099, "name": null, "amenity": "bicycle_parking" }, "geometry": { "type": "Point", "coordinates": [ -6.6600292, 55.1225381 ] } },
{ "type": "Feature", "properties": { "id": 10937275601, "name": "Flames 49", "amenity": "fast_food" }, "geometry": { "type": "Point", "coordinates": [ -6.6620865, 55.13582370000001 ] } },
{ "type": "Feature", "properties": { "id": 11089348992, "name": null, "amenity": "post_box" }, "geometry": { "type": "Point", "coordinates": [ -6.6789727, 55.119309499999986 ] } },
{ "type": "Feature", "properties": { "id": 11148473536, "name": "Millburn Community Centre", "amenity": "community_centre" }, "geometry": { "type": "Point", "coordinates": [ -6.6641657, 55.1389613 ] } },
{ "type": "Feature", "properties": { "id": 11356760075, "name": null, "amenity": "post_box" }, "geometry": { "type": "Point", "coordinates": [ -6.6766859, 55.1489758 ] } },
{ "type": "Feature", "properties": { "id": 11356775117, "name": "Starbucks", "amenity": "cafe" }, "geometry": { "type": "Point", "coordinates": [ -6.6766202, 55.1489028 ] } },
{ "type": "Feature", "properties": { "id": 11357038725, "name": null, "amenity": "post_box" }, "geometry": { "type": "Point", "coordinates": [ -6.6768003, 55.1489767 ] } },
{ "type": "Feature", "properties": { "id": 11378515218, "name": "Whoosh", "amenity": "fast_food" }, "geometry": { "type": "Point", "coordinates": [ -6.6704609, 55.1320781 ] } },
{ "type": "Feature", "properties": { "id": 11388000302, "name": null, "amenity": "atm" }, "geometry": { "type": "Point", "coordinates": [ -6.6391998, 55.1159727 ] } },
{ "type": "Feature", "properties": { "id": 11413557710, "name": "Core Gym", "amenity": "fitness_centre" }, "geometry": { "type": "Point", "coordinates": [ -6.6368608, 55.1358649 ] } },
{ "type": "Feature", "properties": { "id": 11435275676, "name": "Gordons Chemists", "amenity": "pharmacy" }, "geometry": { "type": "Point", "coordinates": [ -6.6710347, 55.1313672 ] } },
{ "type": "Feature", "properties": { "id": 11573776928, "name": "Golden Bowl", "amenity": "fast_food" }, "geometry": { "type": "Point", "coordinates": [ -6.6789498, 55.1323863 ] } },
{ "type": "Feature", "properties": { "id": 11573782736, "name": "Waterside Dental", "amenity": "dentist" }, "geometry": { "type": "Point", "coordinates": [ -6.6763378, 55.1319648 ] } },
{ "type": "Feature", "properties": { "id": 11573791691, "name": "Peking Garden", "amenity": "fast_food" }, "geometry": { "type": "Point", "coordinates": [ -6.6761262, 55.1319429 ] } },
{ "type": "Feature", "properties": { "id": 11573805187, "name": "Causeway class", "amenity": "fitness_centre" }, "geometry": { "type": "Point", "coordinates": [ -6.6763807, 55.1317602 ] } },
{ "type": "Feature", "properties": { "id": 11573809160, "name": null, "amenity": "telephone" }, "geometry": { "type": "Point", "coordinates": [ -6.6688167, 55.1317755 ] } },
{ "type": "Feature", "properties": { "id": 11595871938, "name": "Royal Mail", "amenity": "post_depot" }, "geometry": { "type": "Point", "coordinates": [ -6.6692068, 55.1309834 ] } },
{ "type": "Feature", "properties": { "id": 11595872360, "name": "Baby Sensory", "amenity": "childcare" }, "geometry": { "type": "Point", "coordinates": [ -6.6686204, 55.1308251 ] } },
{ "type": "Feature", "properties": { "id": 11595876957, "name": "Slabz Diner", "amenity": "fast_food" }, "geometry": { "type": "Point", "coordinates": [ -6.6700312, 55.1298025 ] } },
{ "type": "Feature", "properties": { "id": 11673153910, "name": "Yomiko", "amenity": "restaurant" }, "geometry": { "type": "Point", "coordinates": [ -6.6700044, 55.130927 ] } },
{ "type": "Feature", "properties": { "id": 11767528105, "name": "Europcar", "amenity": "car_rental" }, "geometry": { "type": "Point", "coordinates": [ -6.6906284, 55.1095544 ] } },
{ "type": "Feature", "properties": { "id": 12020547232, "name": "Finca Rotisserie Chicken", "amenity": "restaurant" }, "geometry": { "type": "Point", "coordinates": [ -6.6471803, 55.1308204 ] } },
{ "type": "Feature", "properties": { "id": 12106569116, "name": null, "amenity": "vending_machine" }, "geometry": { "type": "Point", "coordinates": [ -6.6772508, 55.1492837 ] } },
{ "type": "Feature", "properties": { "id": 12153353875, "name": null, "amenity": "telephone" }, "geometry": { "type": "Point", "coordinates": [ -6.6820865, 55.1190196 ] } },
{ "type": "Feature", "properties": { "id": 12153353876, "name": null, "amenity": "waste_basket" }, "geometry": { "type": "Point", "coordinates": [ -6.6820444, 55.119063399999987 ] } },
{ "type": "Feature", "properties": { "id": 12153450682, "name": null, "amenity": "waste_basket" }, "geometry": { "type": "Point", "coordinates": [ -6.6714317, 55.133571 ] } },
{ "type": "Feature", "properties": { "id": 12162544016, "name": null, "amenity": "atm" }, "geometry": { "type": "Point", "coordinates": [ -6.6821389, 55.119430899999983 ] } },
{ "type": "Feature", "properties": { "id": 12219551778, "name": null, "amenity": "waste_basket" }, "geometry": { "type": "Point", "coordinates": [ -6.6642999, 55.1302091 ] } },
{ "type": "Feature", "properties": { "id": 12229451755, "name": null, "amenity": "post_box" }, "geometry": { "type": "Point", "coordinates": [ -6.657142, 55.1169748 ] } },
{ "type": "Feature", "properties": { "id": 12231275513, "name": null, "amenity": "post_box" }, "geometry": { "type": "Point", "coordinates": [ -6.6393328, 55.1159939 ] } },
{ "type": "Feature", "properties": { "id": 12251227736, "name": null, "amenity": "vending_machine" }, "geometry": { "type": "Point", "coordinates": [ -6.6754241, 55.1498578 ] } },
{ "type": "Feature", "properties": { "id": 12277251412, "name": null, "amenity": "vending_machine" }, "geometry": { "type": "Point", "coordinates": [ -6.6770461, 55.1507782 ] } },
{ "type": "Feature", "properties": { "id": 12277251413, "name": null, "amenity": "fitness_centre" }, "geometry": { "type": "Point", "coordinates": [ -6.6771052, 55.153256 ] } },
{ "type": "Feature", "properties": { "id": 12277251433, "name": "Bann View Social", "amenity": "bar" }, "geometry": { "type": "Point", "coordinates": [ -6.6780221, 55.1482867 ] } },
{ "type": "Feature", "properties": { "id": 12385088197, "name": "Mister Wu", "amenity": "restaurant" }, "geometry": { "type": "Point", "coordinates": [ -6.6658577, 55.1394584 ] } },
{ "type": "Feature", "properties": { "id": 12388336724, "name": "Coleraine West Community Centre", "amenity": "community_centre" }, "geometry": { "type": "Point", "coordinates": [ -6.6841089, 55.1254686 ] } },
{ "type": "Feature", "properties": { "id": 12388343453, "name": null, "amenity": "post_box" }, "geometry": { "type": "Point", "coordinates": [ -6.6788619, 55.1256921 ] } },
{ "type": "Feature", "properties": { "id": 12389098752, "name": null, "amenity": "bench" }, "geometry": { "type": "Point", "coordinates": [ -6.6490178, 55.1139626 ] } },
{ "type": "Feature", "properties": { "id": 12389098753, "name": null, "amenity": "bench" }, "geometry": { "type": "Point", "coordinates": [ -6.649058, 55.1139488 ] } },
{ "type": "Feature", "properties": { "id": 12389098754, "name": null, "amenity": "bench" }, "geometry": { "type": "Point", "coordinates": [ -6.6489789, 55.1139243 ] } },
{ "type": "Feature", "properties": { "id": 12389098755, "name": null, "amenity": "bench" }, "geometry": { "type": "Point", "coordinates": [ -6.6490176, 55.1139137 ] } },
{ "type": "Feature", "properties": { "id": 12480840266, "name": null, "amenity": "car_wash" }, "geometry": { "type": "Point", "coordinates": [ -6.6707108, 55.1199942 ] } },
{ "type": "Feature", "properties": { "id": 12504567379, "name": null, "amenity": "compressed_air" }, "geometry": { "type": "Point", "coordinates": [ -6.6591023, 55.1384959 ] } },
{ "type": "Feature", "properties": { "id": 12518200095, "name": null, "amenity": "waste_basket" }, "geometry": { "type": "Point", "coordinates": [ -6.6654457, 55.1221374 ] } },
{ "type": "Feature", "properties": { "id": 12520702475, "name": null, "amenity": "shelter" }, "geometry": { "type": "Point", "coordinates": [ -6.6814905, 55.1290568 ] } },
{ "type": "Feature", "properties": { "id": 12949139468, "name": null, "amenity": "shelter" }, "geometry": { "type": "Point", "coordinates": [ -6.6469759, 55.134088 ] } },
{ "type": "Feature", "properties": { "id": 13075695096, "name": null, "amenity": "telephone" }, "geometry": { "type": "Point", "coordinates": [ -6.6592689, 55.1471838 ] } },
{ "type": "Feature", "properties": { "id": 13075695097, "name": null, "amenity": "post_box" }, "geometry": { "type": "Point", "coordinates": [ -6.6592083, 55.1471887 ] } },
{ "type": "Feature", "properties": { "id": 13075748394, "name": "The University Post Office", "amenity": "post_office" }, "geometry": { "type": "Point", "coordinates": [ -6.6768441, 55.1489839 ] } },
{ "type": "Feature", "properties": { "id": 13075780654, "name": "Ballysally Post Office", "amenity": "post_office" }, "geometry": { "type": "Point", "coordinates": [ -6.65937, 55.14734 ] } },
{ "type": "Feature", "properties": { "id": 13075812872, "name": "Harpurs Hill Post Office", "amenity": "post_office" }, "geometry": { "type": "Point", "coordinates": [ -6.652467, 55.1343443 ] } },
{ "type": "Feature", "properties": { "id": 13082002882, "name": "Millburn Road Post Office", "amenity": "post_office" }, "geometry": { "type": "Point", "coordinates": [ -6.6660747, 55.1389996 ] } },
{ "type": "Feature", "properties": { "id": 13082002886, "name": null, "amenity": "car_wash" }, "geometry": { "type": "Point", "coordinates": [ -6.6658766, 55.1393578 ] } },
{ "type": "Feature", "properties": { "id": 13082037594, "name": "Mountsandel Post Office", "amenity": "post_office" }, "geometry": { "type": "Point", "coordinates": [ -6.6392423, 55.116196 ] } },
{ "type": "Feature", "properties": { "id": 13082040619, "name": null, "amenity": "recycling" }, "geometry": { "type": "Point", "coordinates": [ -6.638909, 55.1160664 ] } },
{ "type": "Feature", "properties": { "id": 13082040620, "name": null, "amenity": "recycling" }, "geometry": { "type": "Point", "coordinates": [ -6.6388516, 55.1160672 ] } },
{ "type": "Feature", "properties": { "id": 13132743845, "name": "McDonald's", "amenity": "fast_food" }, "geometry": { "type": "Point", "coordinates": [ -6.6538943, 55.1261793 ] } },
{ "type": "Feature", "properties": { "id": 13180320761, "name": null, "amenity": "atm" }, "geometry": { "type": "Point", "coordinates": [ -6.6672234, 55.1318045 ] } },
{ "type": "Feature", "properties": { "id": 13181272358, "name": null, "amenity": "recycling" }, "geometry": { "type": "Point", "coordinates": [ -6.6790288, 55.1500207 ] } },
{ "type": "Feature", "properties": { "id": 13442613244, "name": null, "amenity": "weighbridge" }, "geometry": { "type": "Point", "coordinates": [ -6.6669221, 55.1393199 ] } },
{ "type": "Feature", "properties": { "id": 13474406699, "name": null, "amenity": "atm" }, "geometry": { "type": "Point", "coordinates": [ -6.6707723, 55.1312127 ] } },
{ "type": "Feature", "properties": { "id": 13525144370, "name": "Yoko", "amenity": "restaurant" }, "geometry": { "type": "Point", "coordinates": [ -6.6781208, 55.119329599999986 ] } },
{ "type": "Feature", "properties": { "id": 13525144371, "name": null, "amenity": "miniature_golf" }, "geometry": { "type": "Point", "coordinates": [ -6.6787806, 55.1201149 ] } },
{ "type": "Feature", "properties": { "id": 13544680500, "name": null, "amenity": "bowling_alley" }, "geometry": { "type": "Point", "coordinates": [ -6.6782475, 55.119637 ] } },
{ "type": "Feature", "properties": { "id": 13594103394, "name": null, "amenity": "parking" }, "geometry": { "type": "Point", "coordinates": [ -6.6672968, 55.133925 ] } },
{ "type": "Feature", "properties": { "id": 6681429, "name": "Anderson Park", "amenity": "park" }, "geometry": { "type": "Point", "coordinates": [ -6.66892900957536, 55.133212680004227 ] } },
{ "type": "Feature", "properties": { "id": 7630860, "name": "Coleraine Free Presbyterian Church", "amenity": "place_of_worship" }, "geometry": { "type": "Point", "coordinates": [ -6.650738581417331, 55.145567650277989 ] } },
{ "type": "Feature", "properties": { "id": 8281711, "name": "Riverside Park", "amenity": "parking" }, "geometry": { "type": "Point", "coordinates": [ -6.665101217032266, 55.11383970748166 ] } },
{ "type": "Feature", "properties": { "id": 11078031, "name": "Coleraine Grammar School", "amenity": "school" }, "geometry": { "type": "Point", "coordinates": [ -6.676610816286746, 55.136859247582848 ] } },
{ "type": "Feature", "properties": { "id": 19169619, "name": null, "amenity": "track" }, "geometry": { "type": "Point", "coordinates": [ -6.65219901891431, 55.120265227781523 ] } },
{ "type": "Feature", "properties": { "id": 19283422, "name": null, "amenity": "parking" }, "geometry": { "type": "Point", "coordinates": [ -6.653417582930316, 55.127229776570275 ] } },
{ "type": "Feature", "properties": { "id": 148458275, "name": "Car Park 1", "amenity": "parking" }, "geometry": { "type": "Point", "coordinates": [ -6.675211717608074, 55.150381399700059 ] } },
{ "type": "Feature", "properties": { "id": 149578405, "name": "The Mall Car Park", "amenity": "parking" }, "geometry": { "type": "Point", "coordinates": [ -6.670593234514031, 55.132569211262727 ] } },
{ "type": "Feature", "properties": { "id": 150534074, "name": "Abbey Street", "amenity": "parking" }, "geometry": { "type": "Point", "coordinates": [ -6.671229012591906, 55.130382882881399 ] } },
{ "type": "Feature", "properties": { "id": 152350558, "name": "Car Park 6", "amenity": "parking" }, "geometry": { "type": "Point", "coordinates": [ -6.669792096549704, 55.147304678522289 ] } },
{ "type": "Feature", "properties": { "id": 155197638, "name": null, "amenity": "pitch" }, "geometry": { "type": "Point", "coordinates": [ -6.682874500596281, 55.125506401709565 ] } },
{ "type": "Feature", "properties": { "id": 155197639, "name": null, "amenity": "parking" }, "geometry": { "type": "Point", "coordinates": [ -6.683945136058191, 55.125141909189693 ] } },
{ "type": "Feature", "properties": { "id": 156065255, "name": null, "amenity": "parking" }, "geometry": { "type": "Point", "coordinates": [ -6.666315199023527, 55.145579878095873 ] } },
{ "type": "Feature", "properties": { "id": 156857439, "name": null, "amenity": "parking" }, "geometry": { "type": "Point", "coordinates": [ -6.668699965385023, 55.128772848721987 ] } },
{ "type": "Feature", "properties": { "id": 161521778, "name": null, "amenity": "parking" }, "geometry": { "type": "Point", "coordinates": [ -6.658036652312444, 55.149410780119389 ] } },
{ "type": "Feature", "properties": { "id": 168335861, "name": "Car Park 4", "amenity": "parking" }, "geometry": { "type": "Point", "coordinates": [ -6.675178099882486, 55.147738862853501 ] } },
{ "type": "Feature", "properties": { "id": 187785976, "name": "Car Park 2", "amenity": "parking" }, "geometry": { "type": "Point", "coordinates": [ -6.679673057969072, 55.150599714064121 ] } },
{ "type": "Feature", "properties": { "id": 187785984, "name": "Pitch 4", "amenity": "pitch" }, "geometry": { "type": "Point", "coordinates": [ -6.676626696753604, 55.154218150552396 ] } },
{ "type": "Feature", "properties": { "id": 187785989, "name": "Pitch 1", "amenity": "pitch" }, "geometry": { "type": "Point", "coordinates": [ -6.677803295815474, 55.153902450409369 ] } },
{ "type": "Feature", "properties": { "id": 187785995, "name": "Pitch 3", "amenity": "pitch" }, "geometry": { "type": "Point", "coordinates": [ -6.675887835123429, 55.1534441517951 ] } },
{ "type": "Feature", "properties": { "id": 187785997, "name": "Riverside Theatre", "amenity": "theatre" }, "geometry": { "type": "Point", "coordinates": [ -6.678272631171387, 55.148753369393219 ] } },
{ "type": "Feature", "properties": { "id": 187786001, "name": "Car Park 9", "amenity": "parking" }, "geometry": { "type": "Point", "coordinates": [ -6.677692528033306, 55.151047309074038 ] } },
{ "type": "Feature", "properties": { "id": 190664587, "name": "Coleraine Leisure Centre", "amenity": "fitness_centre" }, "geometry": { "type": "Point", "coordinates": [ -6.664194123363698, 55.13259391461694 ] } },
{ "type": "Feature", "properties": { "id": 193679455, "name": "Coleraine Driving & Vehicle Test Centre", "amenity": "vehicle_inspection" }, "geometry": { "type": "Point", "coordinates": [ -6.650007047050947, 55.148611129500374 ] } },
{ "type": "Feature", "properties": { "id": 195558637, "name": "Coleraine Football Club", "amenity": "pitch" }, "geometry": { "type": "Point", "coordinates": [ -6.659995451470202, 55.132815724728957 ] } },
{ "type": "Feature", "properties": { "id": 195563434, "name": "Coleraine RFC", "amenity": "pitch" }, "geometry": { "type": "Point", "coordinates": [ -6.658959446521252, 55.122496401104961 ] } },
{ "type": "Feature", "properties": { "id": 195563441, "name": "Coleraine RFC", "amenity": "pitch" }, "geometry": { "type": "Point", "coordinates": [ -6.657803645786214, 55.122985550728067 ] } },
{ "type": "Feature", "properties": { "id": 195563443, "name": "Coleraine RFC", "amenity": "pitch" }, "geometry": { "type": "Point", "coordinates": [ -6.655298071687779, 55.122915655953058 ] } },
{ "type": "Feature", "properties": { "id": 196716265, "name": null, "amenity": "parking" }, "geometry": { "type": "Point", "coordinates": [ -6.669131844300244, 55.150669555098048 ] } },
{ "type": "Feature", "properties": { "id": 196718262, "name": "Ulster University at Coleraine", "amenity": "university" }, "geometry": { "type": "Point", "coordinates": [ -6.6761268307707, 55.151276947174161 ] } },
{ "type": "Feature", "properties": { "id": 200943213, "name": null, "amenity": "pitch" }, "geometry": { "type": "Point", "coordinates": [ -6.657959603210919, 55.136189751541792 ] } },
{ "type": "Feature", "properties": { "id": 200943218, "name": null, "amenity": "pitch" }, "geometry": { "type": "Point", "coordinates": [ -6.656177300517069, 55.134953634461922 ] } },
{ "type": "Feature", "properties": { "id": 200943222, "name": null, "amenity": "pitch" }, "geometry": { "type": "Point", "coordinates": [ -6.657615697301333, 55.135398550709198 ] } },
{ "type": "Feature", "properties": { "id": 200943231, "name": null, "amenity": "pitch" }, "geometry": { "type": "Point", "coordinates": [ -6.656855447128495, 55.135749000694204 ] } },
{ "type": "Feature", "properties": { "id": 200943243, "name": null, "amenity": "pitch" }, "geometry": { "type": "Point", "coordinates": [ -6.658748798147767, 55.137132001175182 ] } },
{ "type": "Feature", "properties": { "id": 200945025, "name": null, "amenity": "pitch" }, "geometry": { "type": "Point", "coordinates": [ -6.677356279516768, 55.138619176703493 ] } },
{ "type": "Feature", "properties": { "id": 200945026, "name": null, "amenity": "pitch" }, "geometry": { "type": "Point", "coordinates": [ -6.680179714150481, 55.138114331202125 ] } },
{ "type": "Feature", "properties": { "id": 200945027, "name": null, "amenity": "pitch" }, "geometry": { "type": "Point", "coordinates": [ -6.680249164086085, 55.139067118431221 ] } },
{ "type": "Feature", "properties": { "id": 200945028, "name": null, "amenity": "pitch" }, "geometry": { "type": "Point", "coordinates": [ -6.678948750055028, 55.137135002041425 ] } },
{ "type": "Feature", "properties": { "id": 200945029, "name": null, "amenity": "pitch" }, "geometry": { "type": "Point", "coordinates": [ -6.678863050055019, 55.136536802041448 ] } },
{ "type": "Feature", "properties": { "id": 200945030, "name": null, "amenity": "pitch" }, "geometry": { "type": "Point", "coordinates": [ -6.679082310869074, 55.138835574751994 ] } },
{ "type": "Feature", "properties": { "id": 200995410, "name": "Longcommons Car Park", "amenity": "parking" }, "geometry": { "type": "Point", "coordinates": [ -6.668634416166857, 55.13000799493922 ] } },
{ "type": "Feature", "properties": { "id": 201001237, "name": "Ballysally Presbyterian Church", "amenity": "place_of_worship" }, "geometry": { "type": "Point", "coordinates": [ -6.65856094978855, 55.149402200118089 ] } },
{ "type": "Feature", "properties": { "id": 204988592, "name": null, "amenity": "parking" }, "geometry": { "type": "Point", "coordinates": [ -6.660196038310231, 55.133489995668036 ] } },
{ "type": "Feature", "properties": { "id": 204989074, "name": "Greenshoots pitch", "amenity": "pitch" }, "geometry": { "type": "Point", "coordinates": [ -6.658148543317892, 55.132911281332824 ] } },
{ "type": "Feature", "properties": { "id": 206546440, "name": "Railway Road Car Park", "amenity": "parking" }, "geometry": { "type": "Point", "coordinates": [ -6.663968530293888, 55.131675707903305 ] } },
{ "type": "Feature", "properties": { "id": 206546442, "name": "Leisure Centre Cark Park", "amenity": "parking" }, "geometry": { "type": "Point", "coordinates": [ -6.66323510195909, 55.132130421861987 ] } },
{ "type": "Feature", "properties": { "id": 239015982, "name": "Coleraine Library", "amenity": "library" }, "geometry": { "type": "Point", "coordinates": [ -6.672409514172277, 55.132670015126337 ] } },
{ "type": "Feature", "properties": { "id": 243633321, "name": null, "amenity": "pitch" }, "geometry": { "type": "Point", "coordinates": [ -6.678032419669918, 55.151729302769802 ] } },
{ "type": "Feature", "properties": { "id": 272693818, "name": "Earl Morrison Memorial Orange Hall", "amenity": "community_centre" }, "geometry": { "type": "Point", "coordinates": [ -6.629525366428444, 55.122102354743753 ] } },
{ "type": "Feature", "properties": { "id": 307185937, "name": "18 dental", "amenity": "dentist" }, "geometry": { "type": "Point", "coordinates": [ -6.66517146459899, 55.131307102416599 ] } },
{ "type": "Feature", "properties": { "id": 307185946, "name": null, "amenity": "social_facility" }, "geometry": { "type": "Point", "coordinates": [ -6.665110518753204, 55.131262083103714 ] } },
{ "type": "Feature", "properties": { "id": 307185947, "name": null, "amenity": "social_facility" }, "geometry": { "type": "Point", "coordinates": [ -6.664988652293532, 55.131172012187527 ] } },
{ "type": "Feature", "properties": { "id": 307185959, "name": "Coleraine Fire Station", "amenity": "fire_station" }, "geometry": { "type": "Point", "coordinates": [ -6.664931291429486, 55.130417747596837 ] } },
{ "type": "Feature", "properties": { "id": 308433066, "name": null, "amenity": "pitch" }, "geometry": { "type": "Point", "coordinates": [ -6.649058897854888, 55.12090890126921 ] } },
{ "type": "Feature", "properties": { "id": 308433067, "name": null, "amenity": "pitch" }, "geometry": { "type": "Point", "coordinates": [ -6.64967083151095, 55.120431901771816 ] } },
{ "type": "Feature", "properties": { "id": 308433068, "name": null, "amenity": "pitch" }, "geometry": { "type": "Point", "coordinates": [ -6.650893658931057, 55.119474934922017 ] } },
{ "type": "Feature", "properties": { "id": 308433069, "name": null, "amenity": "pitch" }, "geometry": { "type": "Point", "coordinates": [ -6.652122752686323, 55.120266550749001 ] } },
{ "type": "Feature", "properties": { "id": 308433070, "name": null, "amenity": "pitch" }, "geometry": { "type": "Point", "coordinates": [ -6.648105752756382, 55.120226601053247 ] } },
{ "type": "Feature", "properties": { "id": 308433071, "name": null, "amenity": "pitch" }, "geometry": { "type": "Point", "coordinates": [ -6.650283597811444, 55.119952301270573 ] } },
{ "type": "Feature", "properties": { "id": 308433214, "name": null, "amenity": "pitch" }, "geometry": { "type": "Point", "coordinates": [ -6.654138878699536, 55.122339869980117 ] } },
{ "type": "Feature", "properties": { "id": 308433215, "name": null, "amenity": "pitch" }, "geometry": { "type": "Point", "coordinates": [ -6.653619546823244, 55.122966290552824 ] } },
{ "type": "Feature", "properties": { "id": 310773176, "name": null, "amenity": "parking" }, "geometry": { "type": "Point", "coordinates": [ -6.671141798881107, 55.128475358861415 ] } },
{ "type": "Feature", "properties": { "id": 310773177, "name": null, "amenity": "parking" }, "geometry": { "type": "Point", "coordinates": [ -6.673172775415226, 55.129539267102381 ] } },
{ "type": "Feature", "properties": { "id": 310773178, "name": null, "amenity": "parking" }, "geometry": { "type": "Point", "coordinates": [ -6.67334898393594, 55.129708224682688 ] } },
{ "type": "Feature", "properties": { "id": 310773179, "name": null, "amenity": "parking" }, "geometry": { "type": "Point", "coordinates": [ -6.672894460973644, 55.129174092189146 ] } },
{ "type": "Feature", "properties": { "id": 310773180, "name": "Coleraine Town Hall", "amenity": "townhall" }, "geometry": { "type": "Point", "coordinates": [ -6.671289393721826, 55.131600427622679 ] } },
{ "type": "Feature", "properties": { "id": 310773183, "name": "KFC", "amenity": "fast_food" }, "geometry": { "type": "Point", "coordinates": [ -6.673088156409285, 55.129429513954911 ] } },
{ "type": "Feature", "properties": { "id": 325295484, "name": "Coleraine Recycling Centre", "amenity": "recycling" }, "geometry": { "type": "Point", "coordinates": [ -6.652844510947395, 55.14892089460627 ] } },
{ "type": "Feature", "properties": { "id": 347513627, "name": "Windyhall Playing Fields and Park", "amenity": "playground" }, "geometry": { "type": "Point", "coordinates": [ -6.635222066016618, 55.118651794867624 ] } },
{ "type": "Feature", "properties": { "id": 349423889, "name": "Coleraine Park and Ride", "amenity": "parking" }, "geometry": { "type": "Point", "coordinates": [ -6.663193945008643, 55.133051519974998 ] } },
{ "type": "Feature", "properties": { "id": 353290385, "name": "Car Park 3", "amenity": "parking" }, "geometry": { "type": "Point", "coordinates": [ -6.677157591543444, 55.149584899957397 ] } },
{ "type": "Feature", "properties": { "id": 354625363, "name": "PureGym", "amenity": "fitness_centre" }, "geometry": { "type": "Point", "coordinates": [ -6.672304550484356, 55.121879400138582 ] } },
{ "type": "Feature", "properties": { "id": 354625367, "name": "Sainsbury's", "amenity": "fuel" }, "geometry": { "type": "Point", "coordinates": [ -6.670649658285378, 55.11967671344275 ] } },
{ "type": "Feature", "properties": { "id": 354625368, "name": "Burger King", "amenity": "fast_food" }, "geometry": { "type": "Point", "coordinates": [ -6.670954302711997, 55.12052206824756 ] } },
{ "type": "Feature", "properties": { "id": 354625431, "name": null, "amenity": "parking" }, "geometry": { "type": "Point", "coordinates": [ -6.673651263006437, 55.119822242657428 ] } },
{ "type": "Feature", "properties": { "id": 354625811, "name": null, "amenity": "parking" }, "geometry": { "type": "Point", "coordinates": [ -6.672442966991682, 55.121515531947487 ] } },
{ "type": "Feature", "properties": { "id": 386347959, "name": "St. Malachy's Church", "amenity": "place_of_worship" }, "geometry": { "type": "Point", "coordinates": [ -6.664772318495662, 55.127791015732775 ] } },
{ "type": "Feature", "properties": { "id": 386347961, "name": "Terrace Row Presbyterian Church", "amenity": "place_of_worship" }, "geometry": { "type": "Point", "coordinates": [ -6.668263948139224, 55.12780014953335 ] } },
{ "type": "Feature", "properties": { "id": 386347962, "name": "Terrace Row Carpark", "amenity": "parking" }, "geometry": { "type": "Point", "coordinates": [ -6.668480119737462, 55.127489170107154 ] } },
{ "type": "Feature", "properties": { "id": 386347963, "name": "Mountandel Health Centre", "amenity": "doctors" }, "geometry": { "type": "Point", "coordinates": [ -6.668743694373306, 55.127189636511424 ] } },
{ "type": "Feature", "properties": { "id": 386347965, "name": "Lodge Health", "amenity": "doctors" }, "geometry": { "type": "Point", "coordinates": [ -6.662969840438159, 55.127693614115849 ] } },
{ "type": "Feature", "properties": { "id": 386349489, "name": "Coleraine Courthouse", "amenity": "courthouse" }, "geometry": { "type": "Point", "coordinates": [ -6.662850112300235, 55.121974636530538 ] } },
{ "type": "Feature", "properties": { "id": 386349490, "name": "Sandelford School", "amenity": "school" }, "geometry": { "type": "Point", "coordinates": [ -6.654761234457164, 55.121251408435846 ] } },
{ "type": "Feature", "properties": { "id": 386350555, "name": "Irish Society's Primary School", "amenity": "school" }, "geometry": { "type": "Point", "coordinates": [ -6.661246059434986, 55.122491813183167 ] } },
{ "type": "Feature", "properties": { "id": 386350556, "name": null, "amenity": "parking" }, "geometry": { "type": "Point", "coordinates": [ -6.658940247161586, 55.12126924665084 ] } },
{ "type": "Feature", "properties": { "id": 387128631, "name": null, "amenity": "parking" }, "geometry": { "type": "Point", "coordinates": [ -6.677416881147467, 55.119691946472564 ] } },
{ "type": "Feature", "properties": { "id": 395117971, "name": null, "amenity": "parking" }, "geometry": { "type": "Point", "coordinates": [ -6.66045907987258, 55.146821424644877 ] } },
{ "type": "Feature", "properties": { "id": 395117974, "name": null, "amenity": "pitch" }, "geometry": { "type": "Point", "coordinates": [ -6.661096937701524, 55.147223548845112 ] } },
{ "type": "Feature", "properties": { "id": 395117980, "name": "Ballysally Primary School", "amenity": "school" }, "geometry": { "type": "Point", "coordinates": [ -6.660960944328332, 55.146670829152754 ] } },
{ "type": "Feature", "properties": { "id": 406464488, "name": null, "amenity": "playground" }, "geometry": { "type": "Point", "coordinates": [ -6.681031100041949, 55.126606320524417 ] } },
{ "type": "Feature", "properties": { "id": 406464490, "name": "The Chip Inn", "amenity": "fast_food" }, "geometry": { "type": "Point", "coordinates": [ -6.679338267926866, 55.125375716262063 ] } },
{ "type": "Feature", "properties": { "id": 406466540, "name": "Coleraine Tech Car Park", "amenity": "parking" }, "geometry": { "type": "Point", "coordinates": [ -6.66677730948834, 55.135304026233953 ] } },
{ "type": "Feature", "properties": { "id": 406468979, "name": "UUC Daffodil Garden", "amenity": "garden" }, "geometry": { "type": "Point", "coordinates": [ -6.673468546197974, 55.145966308246663 ] } },
{ "type": "Feature", "properties": { "id": 406468984, "name": "Pitch 8", "amenity": "pitch" }, "geometry": { "type": "Point", "coordinates": [ -6.679959702566958, 55.153929152652559 ] } },
{ "type": "Feature", "properties": { "id": 408308562, "name": null, "amenity": "slipway" }, "geometry": { "type": "Point", "coordinates": [ -6.673183549667956, 55.135175350133508 ] } },
{ "type": "Feature", "properties": { "id": 408313770, "name": null, "amenity": "pitch" }, "geometry": { "type": "Point", "coordinates": [ -6.662802950064739, 55.128747400223432 ] } },
{ "type": "Feature", "properties": { "id": 408313771, "name": null, "amenity": "track" }, "geometry": { "type": "Point", "coordinates": [ -6.658041072713044, 55.128203118237266 ] } },
{ "type": "Feature", "properties": { "id": 408313772, "name": null, "amenity": "track" }, "geometry": { "type": "Point", "coordinates": [ -6.658431354405837, 55.12848760124632 ] } },
{ "type": "Feature", "properties": { "id": 436190618, "name": "Coleraine Police Station", "amenity": "police" }, "geometry": { "type": "Point", "coordinates": [ -6.666081820253674, 55.130200663247543 ] } },
{ "type": "Feature", "properties": { "id": 438551062, "name": "Castleroe Primary School", "amenity": "school" }, "geometry": { "type": "Point", "coordinates": [ -6.656370545469176, 55.105532471320736 ] } },
{ "type": "Feature", "properties": { "id": 438717711, "name": "Loreto College", "amenity": "school" }, "geometry": { "type": "Point", "coordinates": [ -6.688479753090933, 55.140300456790804 ] } },
{ "type": "Feature", "properties": { "id": 439605798, "name": "North Coast Integrated College", "amenity": "school" }, "geometry": { "type": "Point", "coordinates": [ -6.652075931789663, 55.14219596858527 ] } },
{ "type": "Feature", "properties": { "id": 439605802, "name": "Causeway Hospital", "amenity": "hospital" }, "geometry": { "type": "Point", "coordinates": [ -6.650771749200068, 55.124449921053568 ] } },
{ "type": "Feature", "properties": { "id": 439611178, "name": null, "amenity": "playground" }, "geometry": { "type": "Point", "coordinates": [ -6.659143269618139, 55.144539688809495 ] } },
{ "type": "Feature", "properties": { "id": 442432483, "name": "Waterside", "amenity": "parking" }, "geometry": { "type": "Point", "coordinates": [ -6.676413945922437, 55.132824201298085 ] } },
{ "type": "Feature", "properties": { "id": 442434256, "name": "County Hall Grounds", "amenity": "townhall" }, "geometry": { "type": "Point", "coordinates": [ -6.677621030036088, 55.135364049545636 ] } },
{ "type": "Feature", "properties": { "id": 450324990, "name": "Main Car Park", "amenity": "parking" }, "geometry": { "type": "Point", "coordinates": [ -6.651711748328996, 55.123764120886122 ] } },
{ "type": "Feature", "properties": { "id": 450324996, "name": null, "amenity": "parking" }, "geometry": { "type": "Point", "coordinates": [ -6.65283348237629, 55.124923158713131 ] } },
{ "type": "Feature", "properties": { "id": 450324999, "name": null, "amenity": "parking" }, "geometry": { "type": "Point", "coordinates": [ -6.648354335789785, 55.123949137925088 ] } },
{ "type": "Feature", "properties": { "id": 450764606, "name": "Harpur's Hill Primary School", "amenity": "school" }, "geometry": { "type": "Point", "coordinates": [ -6.65192488442113, 55.135478249622345 ] } },
{ "type": "Feature", "properties": { "id": 451020424, "name": "Millburn Primary School", "amenity": "school" }, "geometry": { "type": "Point", "coordinates": [ -6.662912086164853, 55.138531641105708 ] } },
{ "type": "Feature", "properties": { "id": 463882757, "name": null, "amenity": "parking" }, "geometry": { "type": "Point", "coordinates": [ -6.667054524798432, 55.113330223955501 ] } },
{ "type": "Feature", "properties": { "id": 476925479, "name": "Pitch 7", "amenity": "pitch" }, "geometry": { "type": "Point", "coordinates": [ -6.678965944056968, 55.155042350417105 ] } },
{ "type": "Feature", "properties": { "id": 476925480, "name": "Pitch 5", "amenity": "pitch" }, "geometry": { "type": "Point", "coordinates": [ -6.67661919687527, 55.155750750512766 ] } },
{ "type": "Feature", "properties": { "id": 476925481, "name": "Pitch 6", "amenity": "pitch" }, "geometry": { "type": "Point", "coordinates": [ -6.677895546268357, 55.155454550497318 ] } },
{ "type": "Feature", "properties": { "id": 476925482, "name": null, "amenity": "track" }, "geometry": { "type": "Point", "coordinates": [ -6.674039212780953, 55.151926115766571 ] } },
{ "type": "Feature", "properties": { "id": 482014695, "name": null, "amenity": "pitch" }, "geometry": { "type": "Point", "coordinates": [ -6.667851149987492, 55.135344650117503 ] } },
{ "type": "Feature", "properties": { "id": 482014696, "name": null, "amenity": "pitch" }, "geometry": { "type": "Point", "coordinates": [ -6.665956574272349, 55.135317454460179 ] } },
{ "type": "Feature", "properties": { "id": 482014699, "name": null, "amenity": "grave_yard" }, "geometry": { "type": "Point", "coordinates": [ -6.668361428543434, 55.132163419340181 ] } },
{ "type": "Feature", "properties": { "id": 495028238, "name": "Abundant Life Christian Healing Centre", "amenity": "place_of_worship" }, "geometry": { "type": "Point", "coordinates": [ -6.630134383441257, 55.121460447023551 ] } },
{ "type": "Feature", "properties": { "id": 495031882, "name": "Windyhall Community Centre", "amenity": "community_centre" }, "geometry": { "type": "Point", "coordinates": [ -6.635481834288236, 55.11932003752554 ] } },
{ "type": "Feature", "properties": { "id": 495037153, "name": "The Newbridge Restaurant", "amenity": "restaurant" }, "geometry": { "type": "Point", "coordinates": [ -6.632898213732203, 55.117131323804657 ] } },
{ "type": "Feature", "properties": { "id": 498606922, "name": "Sandel Centre - Mountsandel Christian Fellowship", "amenity": "place_of_worship" }, "geometry": { "type": "Point", "coordinates": [ -6.640258052098122, 55.114965237654459 ] } },
{ "type": "Feature", "properties": { "id": 499156613, "name": "Pure Dental Hygene", "amenity": "dentist" }, "geometry": { "type": "Point", "coordinates": [ -6.638961699957313, 55.115241750006831 ] } },
{ "type": "Feature", "properties": { "id": 499156615, "name": "Causeway Orthodontic Centre", "amenity": "dentist" }, "geometry": { "type": "Point", "coordinates": [ -6.638888449957104, 55.115272850006754 ] } },
{ "type": "Feature", "properties": { "id": 499156617, "name": "Innovate personal training", "amenity": "fitness_centre" }, "geometry": { "type": "Point", "coordinates": [ -6.638811433375085, 55.115307588925297 ] } },
{ "type": "Feature", "properties": { "id": 499156622, "name": "Coleraine Foot Clinic", "amenity": "clinic" }, "geometry": { "type": "Point", "coordinates": [ -6.638657849980516, 55.115590850023992 ] } },
{ "type": "Feature", "properties": { "id": 499156628, "name": "Jade House Chinese", "amenity": "fast_food" }, "geometry": { "type": "Point", "coordinates": [ -6.638582851981748, 55.115747877769586 ] } },
{ "type": "Feature", "properties": { "id": 499156636, "name": "Maxol", "amenity": "fuel" }, "geometry": { "type": "Point", "coordinates": [ -6.639579847133729, 55.115924499049591 ] } },
{ "type": "Feature", "properties": { "id": 503367731, "name": "The Church of Jesus Christ of Latter-day Saints", "amenity": "place_of_worship" }, "geometry": { "type": "Point", "coordinates": [ -6.645803888077678, 55.112733742757221 ] } },
{ "type": "Feature", "properties": { "id": 518854792, "name": "Ballyclabber Reformed Presbyterian Church", "amenity": "place_of_worship" }, "geometry": { "type": "Point", "coordinates": [ -6.628029439333941, 55.13635709638428 ] } },
{ "type": "Feature", "properties": { "id": 518854838, "name": "Coleraine Veterinary Services", "amenity": "veterinary" }, "geometry": { "type": "Point", "coordinates": [ -6.640218001045866, 55.135166933828138 ] } },
{ "type": "Feature", "properties": { "id": 522515997, "name": "Unfit and Personal Training", "amenity": "fitness_centre" }, "geometry": { "type": "Point", "coordinates": [ -6.651899106963809, 55.147627727934186 ] } },
{ "type": "Feature", "properties": { "id": 527254734, "name": "Brookmount Nursing Home", "amenity": "social_facility" }, "geometry": { "type": "Point", "coordinates": [ -6.650320793950319, 55.13333810667546 ] } },
{ "type": "Feature", "properties": { "id": 527254735, "name": "Brookhill House", "amenity": "social_facility" }, "geometry": { "type": "Point", "coordinates": [ -6.649249916336263, 55.133054285557108 ] } },
{ "type": "Feature", "properties": { "id": 527295933, "name": null, "amenity": "park" }, "geometry": { "type": "Point", "coordinates": [ -6.651183329412755, 55.133716604993808 ] } },
{ "type": "Feature", "properties": { "id": 530393034, "name": "Kingdom Hall of Jehovah's Witnesses", "amenity": "place_of_worship" }, "geometry": { "type": "Point", "coordinates": [ -6.663913978055714, 55.136033587483141 ] } },
{ "type": "Feature", "properties": { "id": 532954301, "name": "Solo", "amenity": "fuel" }, "geometry": { "type": "Point", "coordinates": [ -6.659498135440856, 55.138632479342455 ] } },
{ "type": "Feature", "properties": { "id": 532961501, "name": "First Coleraine Scout Group", "amenity": "community_centre" }, "geometry": { "type": "Point", "coordinates": [ -6.66041676247199, 55.136570285705297 ] } },
{ "type": "Feature", "properties": { "id": 533411022, "name": "Patsy's Bar", "amenity": "pub" }, "geometry": { "type": "Point", "coordinates": [ -6.662835778361787, 55.134690467380572 ] } },
{ "type": "Feature", "properties": { "id": 533458459, "name": "Garrett's Fish and Chips", "amenity": "fast_food" }, "geometry": { "type": "Point", "coordinates": [ -6.662631873481843, 55.135077751121486 ] } },
{ "type": "Feature", "properties": { "id": 548873591, "name": "St. Patrick's Church", "amenity": "place_of_worship" }, "geometry": { "type": "Point", "coordinates": [ -6.668449582981967, 55.132221164851558 ] } },
{ "type": "Feature", "properties": { "id": 548910059, "name": null, "amenity": "parking" }, "geometry": { "type": "Point", "coordinates": [ -6.667689867616628, 55.128800594852443 ] } },
{ "type": "Feature", "properties": { "id": 548910064, "name": "Nicholls", "amenity": "fuel" }, "geometry": { "type": "Point", "coordinates": [ -6.66797557006363, 55.128735008201964 ] } },
{ "type": "Feature", "properties": { "id": 548911132, "name": "Water Margin", "amenity": "restaurant" }, "geometry": { "type": "Point", "coordinates": [ -6.674156418275031, 55.130537779058194 ] } },
{ "type": "Feature", "properties": { "id": 548915237, "name": "Nationwide", "amenity": "bank" }, "geometry": { "type": "Point", "coordinates": [ -6.671660855233077, 55.13126669391994 ] } },
{ "type": "Feature", "properties": { "id": 548915238, "name": "Progressive Building Society", "amenity": "bank" }, "geometry": { "type": "Point", "coordinates": [ -6.671495699035439, 55.131229073888115 ] } },
{ "type": "Feature", "properties": { "id": 548915242, "name": "Bank of Ireland", "amenity": "bank" }, "geometry": { "type": "Point", "coordinates": [ -6.670871400857687, 55.131373140633663 ] } },
{ "type": "Feature", "properties": { "id": 548916395, "name": null, "amenity": "parking" }, "geometry": { "type": "Point", "coordinates": [ -6.666108952588589, 55.139522806850444 ] } },
{ "type": "Feature", "properties": { "id": 548919781, "name": "Methodist Church", "amenity": "place_of_worship" }, "geometry": { "type": "Point", "coordinates": [ -6.672668499894312, 55.132486150101961 ] } },
{ "type": "Feature", "properties": { "id": 548919782, "name": null, "amenity": "parking" }, "geometry": { "type": "Point", "coordinates": [ -6.67394113815185, 55.132182642799911 ] } },
{ "type": "Feature", "properties": { "id": 548919783, "name": "First Coleraine Presbyterian", "amenity": "place_of_worship" }, "geometry": { "type": "Point", "coordinates": [ -6.671758200261519, 55.129506650106826 ] } },
{ "type": "Feature", "properties": { "id": 548919784, "name": "Coleraine Baptist Church", "amenity": "place_of_worship" }, "geometry": { "type": "Point", "coordinates": [ -6.671206164800963, 55.129844957450629 ] } },
{ "type": "Feature", "properties": { "id": 548921464, "name": null, "amenity": "parking" }, "geometry": { "type": "Point", "coordinates": [ -6.669056361680488, 55.127079036530318 ] } },
{ "type": "Feature", "properties": { "id": 549404137, "name": "Asda", "amenity": "fuel" }, "geometry": { "type": "Point", "coordinates": [ -6.652259856566756, 55.12690960766286 ] } },
{ "type": "Feature", "properties": { "id": 549584290, "name": "Cheeky Chimps", "amenity": "indoor_play" }, "geometry": { "type": "Point", "coordinates": [ -6.644016770013871, 55.127465751784023 ] } },
{ "type": "Feature", "properties": { "id": 549584954, "name": null, "amenity": "pitch" }, "geometry": { "type": "Point", "coordinates": [ -6.671018594966871, 55.135014305944551 ] } },
{ "type": "Feature", "properties": { "id": 549584955, "name": null, "amenity": "pitch" }, "geometry": { "type": "Point", "coordinates": [ -6.67076446994797, 55.13493642677166 ] } },
{ "type": "Feature", "properties": { "id": 549584956, "name": null, "amenity": "pitch" }, "geometry": { "type": "Point", "coordinates": [ -6.670564245044663, 55.134872386139342 ] } },
{ "type": "Feature", "properties": { "id": 549584957, "name": null, "amenity": "pitch" }, "geometry": { "type": "Point", "coordinates": [ -6.670382888929545, 55.134813538494456 ] } },
{ "type": "Feature", "properties": { "id": 549586403, "name": "BP", "amenity": "fuel" }, "geometry": { "type": "Point", "coordinates": [ -6.66602589396819, 55.13921852965926 ] } },
{ "type": "Feature", "properties": { "id": 549637646, "name": "McDonald's", "amenity": "fast_food" }, "geometry": { "type": "Point", "coordinates": [ -6.673846592540349, 55.122154674173693 ] } },
{ "type": "Feature", "properties": { "id": 549637648, "name": "Go", "amenity": "fuel" }, "geometry": { "type": "Point", "coordinates": [ -6.67561305532528, 55.121481606373408 ] } },
{ "type": "Feature", "properties": { "id": 549638651, "name": "Costa", "amenity": "cafe" }, "geometry": { "type": "Point", "coordinates": [ -6.674040740128019, 55.12010691226444 ] } },
{ "type": "Feature", "properties": { "id": 549638652, "name": "Nando's", "amenity": "restaurant" }, "geometry": { "type": "Point", "coordinates": [ -6.674145950090193, 55.120237700098066 ] } },
{ "type": "Feature", "properties": { "id": 549992893, "name": null, "amenity": "parking" }, "geometry": { "type": "Point", "coordinates": [ -6.673454639332125, 55.121968120560631 ] } },
{ "type": "Feature", "properties": { "id": 550921255, "name": null, "amenity": "parking" }, "geometry": { "type": "Point", "coordinates": [ -6.652104407563238, 55.121631770673858 ] } },
{ "type": "Feature", "properties": { "id": 586648009, "name": null, "amenity": "parking" }, "geometry": { "type": "Point", "coordinates": [ -6.649597970998509, 55.112922567917991 ] } },
{ "type": "Feature", "properties": { "id": 588413213, "name": "Coleraine College", "amenity": "school" }, "geometry": { "type": "Point", "coordinates": [ -6.684976510641406, 55.132337509528817 ] } },
{ "type": "Feature", "properties": { "id": 604673541, "name": null, "amenity": "parking" }, "geometry": { "type": "Point", "coordinates": [ -6.638892956099869, 55.115562188700409 ] } },
{ "type": "Feature", "properties": { "id": 604673542, "name": null, "amenity": "parking" }, "geometry": { "type": "Point", "coordinates": [ -6.63927567827837, 55.115796351062585 ] } },
{ "type": "Feature", "properties": { "id": 604673543, "name": null, "amenity": "parking" }, "geometry": { "type": "Point", "coordinates": [ -6.639460265493075, 55.116142912862834 ] } },
{ "type": "Feature", "properties": { "id": 607167768, "name": null, "amenity": "parking" }, "geometry": { "type": "Point", "coordinates": [ -6.674101827910105, 55.121741646818414 ] } },
{ "type": "Feature", "properties": { "id": 611665529, "name": null, "amenity": "parking" }, "geometry": { "type": "Point", "coordinates": [ -6.645063366710756, 55.148490053548628 ] } },
{ "type": "Feature", "properties": { "id": 611665530, "name": null, "amenity": "parking" }, "geometry": { "type": "Point", "coordinates": [ -6.644669201474517, 55.148141733612277 ] } },
{ "type": "Feature", "properties": { "id": 612385422, "name": null, "amenity": "garden" }, "geometry": { "type": "Point", "coordinates": [ -6.672653644132474, 55.131765941497179 ] } },
{ "type": "Feature", "properties": { "id": 616171295, "name": "Pizza Max", "amenity": "fast_food" }, "geometry": { "type": "Point", "coordinates": [ -6.667356049996365, 55.131751699990922 ] } },
{ "type": "Feature", "properties": { "id": 616171300, "name": "Culture Coffee", "amenity": "cafe" }, "geometry": { "type": "Point", "coordinates": [ -6.667940142963187, 55.131705854073239 ] } },
{ "type": "Feature", "properties": { "id": 616171304, "name": "CeCe's", "amenity": "cafe" }, "geometry": { "type": "Point", "coordinates": [ -6.667595442977838, 55.131932125707621 ] } },
{ "type": "Feature", "properties": { "id": 616175551, "name": "Coleraine Congregational Church", "amenity": "place_of_worship" }, "geometry": { "type": "Point", "coordinates": [ -6.669771721758912, 55.130100152386611 ] } },
{ "type": "Feature", "properties": { "id": 616175552, "name": "New Row Presbyterian", "amenity": "place_of_worship" }, "geometry": { "type": "Point", "coordinates": [ -6.669299994754717, 55.131200000170871 ] } },
{ "type": "Feature", "properties": { "id": 617012424, "name": null, "amenity": "parking" }, "geometry": { "type": "Point", "coordinates": [ -6.655388317956043, 55.125684951955172 ] } },
{ "type": "Feature", "properties": { "id": 617022291, "name": null, "amenity": "parking" }, "geometry": { "type": "Point", "coordinates": [ -6.653070770614496, 55.13367904481882 ] } },
{ "type": "Feature", "properties": { "id": 630205626, "name": "County Hall", "amenity": "townhall" }, "geometry": { "type": "Point", "coordinates": [ -6.676787064825505, 55.135033172301924 ] } },
{ "type": "Feature", "properties": { "id": 632461651, "name": "Coleraine Health Centre", "amenity": "doctors" }, "geometry": { "type": "Point", "coordinates": [ -6.677751319359885, 55.133130462971558 ] } },
{ "type": "Feature", "properties": { "id": 656559676, "name": null, "amenity": "parking" }, "geometry": { "type": "Point", "coordinates": [ -6.647890278068798, 55.109849966448884 ] } },
{ "type": "Feature", "properties": { "id": 678614177, "name": null, "amenity": "parking" }, "geometry": { "type": "Point", "coordinates": [ -6.646823249067046, 55.149552224879258 ] } },
{ "type": "Feature", "properties": { "id": 687360674, "name": "Car Park 8", "amenity": "parking" }, "geometry": { "type": "Point", "coordinates": [ -6.679128793362994, 55.153289934052829 ] } },
{ "type": "Feature", "properties": { "id": 687360675, "name": "Car Park 7", "amenity": "parking" }, "geometry": { "type": "Point", "coordinates": [ -6.678988328311645, 55.15242611884166 ] } },
{ "type": "Feature", "properties": { "id": 687360676, "name": null, "amenity": "parking" }, "geometry": { "type": "Point", "coordinates": [ -6.679210645934049, 55.152050556202106 ] } },
{ "type": "Feature", "properties": { "id": 687381106, "name": "Causeway Coast and Glens Borough Council - Coleraine Office", "amenity": "townhall" }, "geometry": { "type": "Point", "coordinates": [ -6.676013463331945, 55.145192279561158 ] } },
{ "type": "Feature", "properties": { "id": 687381107, "name": null, "amenity": "parking" }, "geometry": { "type": "Point", "coordinates": [ -6.674943592159186, 55.144718168207888 ] } },
{ "type": "Feature", "properties": { "id": 687386105, "name": "Car Park 7", "amenity": "parking" }, "geometry": { "type": "Point", "coordinates": [ -6.677334052796127, 55.152207863096976 ] } },
{ "type": "Feature", "properties": { "id": 687398090, "name": "Car Park 5", "amenity": "parking" }, "geometry": { "type": "Point", "coordinates": [ -6.670609279601759, 55.14762224688009 ] } },
{ "type": "Feature", "properties": { "id": 691735745, "name": "Car Park 11", "amenity": "parking" }, "geometry": { "type": "Point", "coordinates": [ -6.674245086797936, 55.147413789715053 ] } },
{ "type": "Feature", "properties": { "id": 694832562, "name": "Killowen Primary School", "amenity": "school" }, "geometry": { "type": "Point", "coordinates": [ -6.676082251666097, 55.126772273165699 ] } },
{ "type": "Feature", "properties": { "id": 694832565, "name": null, "amenity": "schoolyard" }, "geometry": { "type": "Point", "coordinates": [ -6.676365604954806, 55.126560302706835 ] } },
{ "type": "Feature", "properties": { "id": 694832575, "name": null, "amenity": "parking" }, "geometry": { "type": "Point", "coordinates": [ -6.675791818774943, 55.12684098861763 ] } },
{ "type": "Feature", "properties": { "id": 694832576, "name": null, "amenity": "parking" }, "geometry": { "type": "Point", "coordinates": [ -6.675717245214613, 55.127054180574973 ] } },
{ "type": "Feature", "properties": { "id": 694832995, "name": null, "amenity": "playground" }, "geometry": { "type": "Point", "coordinates": [ -6.676047200047553, 55.126887600024077 ] } },
{ "type": "Feature", "properties": { "id": 713944773, "name": "D.H. Christie Memorial Primary School", "amenity": "school" }, "geometry": { "type": "Point", "coordinates": [ -6.680867465651976, 55.140436634628443 ] } },
{ "type": "Feature", "properties": { "id": 713944774, "name": null, "amenity": "park" }, "geometry": { "type": "Point", "coordinates": [ -6.677654418315593, 55.1382517490933 ] } },
{ "type": "Feature", "properties": { "id": 713948648, "name": null, "amenity": "shelter" }, "geometry": { "type": "Point", "coordinates": [ -6.681554989360598, 55.14064612216562 ] } },
{ "type": "Feature", "properties": { "id": 713948653, "name": null, "amenity": "shelter" }, "geometry": { "type": "Point", "coordinates": [ -6.680413467007019, 55.140702086552515 ] } },
{ "type": "Feature", "properties": { "id": 713948654, "name": null, "amenity": "playground" }, "geometry": { "type": "Point", "coordinates": [ -6.680448784276924, 55.14071316615496 ] } },
{ "type": "Feature", "properties": { "id": 713948655, "name": null, "amenity": "pitch" }, "geometry": { "type": "Point", "coordinates": [ -6.679623251932327, 55.140492164658042 ] } },
{ "type": "Feature", "properties": { "id": 721871030, "name": null, "amenity": "playground" }, "geometry": { "type": "Point", "coordinates": [ -6.669493571282607, 55.132969602299127 ] } },
{ "type": "Feature", "properties": { "id": 723857145, "name": "Ocho Bistro", "amenity": "restaurant" }, "geometry": { "type": "Point", "coordinates": [ -6.68687484144869, 55.150580626707452 ] } },
{ "type": "Feature", "properties": { "id": 786386530, "name": "Milburn Veterinary Practice", "amenity": "veterinary" }, "geometry": { "type": "Point", "coordinates": [ -6.666213244582845, 55.140293693246186 ] } },
{ "type": "Feature", "properties": { "id": 813096666, "name": "St John's Church", "amenity": "place_of_worship" }, "geometry": { "type": "Point", "coordinates": [ -6.678254349889062, 55.127410999999086 ] } },
{ "type": "Feature", "properties": { "id": 813096667, "name": "Killowen Parish Church", "amenity": "place_of_worship" }, "geometry": { "type": "Point", "coordinates": [ -6.676416581705443, 55.128574746233809 ] } },
{ "type": "Feature", "properties": { "id": 813096668, "name": null, "amenity": "grave_yard" }, "geometry": { "type": "Point", "coordinates": [ -6.6764143904406, 55.128780410155663 ] } },
{ "type": "Feature", "properties": { "id": 815395049, "name": null, "amenity": "parking" }, "geometry": { "type": "Point", "coordinates": [ -6.682109967006018, 55.14074519140231 ] } },
{ "type": "Feature", "properties": { "id": 815395050, "name": null, "amenity": "parking" }, "geometry": { "type": "Point", "coordinates": [ -6.681305072922178, 55.140818236259413 ] } },
{ "type": "Feature", "properties": { "id": 815395052, "name": null, "amenity": "pitch" }, "geometry": { "type": "Point", "coordinates": [ -6.69040580919583, 55.140858422658809 ] } },
{ "type": "Feature", "properties": { "id": 815395053, "name": null, "amenity": "pitch" }, "geometry": { "type": "Point", "coordinates": [ -6.688365179072263, 55.141071672507373 ] } },
{ "type": "Feature", "properties": { "id": 815395054, "name": null, "amenity": "track" }, "geometry": { "type": "Point", "coordinates": [ -6.690545098779967, 55.140839675495471 ] } },
{ "type": "Feature", "properties": { "id": 815395062, "name": null, "amenity": "parking" }, "geometry": { "type": "Point", "coordinates": [ -6.690804770900785, 55.139646989489457 ] } },
{ "type": "Feature", "properties": { "id": 815395070, "name": null, "amenity": "parking" }, "geometry": { "type": "Point", "coordinates": [ -6.687910895802941, 55.140138782181708 ] } },
{ "type": "Feature", "properties": { "id": 815395071, "name": "St John's Primary School", "amenity": "school" }, "geometry": { "type": "Point", "coordinates": [ -6.680627046548626, 55.131160013008135 ] } },
{ "type": "Feature", "properties": { "id": 815395073, "name": null, "amenity": "playground" }, "geometry": { "type": "Point", "coordinates": [ -6.681175802362948, 55.131021019171754 ] } },
{ "type": "Feature", "properties": { "id": 815432493, "name": "St Malachy's Primary School", "amenity": "school" }, "geometry": { "type": "Point", "coordinates": [ -6.66552863918493, 55.126913235513449 ] } },
{ "type": "Feature", "properties": { "id": 815432496, "name": null, "amenity": "pitch" }, "geometry": { "type": "Point", "coordinates": [ -6.661958332219139, 55.122857295407648 ] } },
{ "type": "Feature", "properties": { "id": 815432499, "name": null, "amenity": "parking" }, "geometry": { "type": "Point", "coordinates": [ -6.654941386622787, 55.121817760453283 ] } },
{ "type": "Feature", "properties": { "id": 815432508, "name": null, "amenity": "parking" }, "geometry": { "type": "Point", "coordinates": [ -6.655774417353265, 55.121611053967705 ] } },
{ "type": "Feature", "properties": { "id": 815432511, "name": null, "amenity": "pitch" }, "geometry": { "type": "Point", "coordinates": [ -6.652852299614924, 55.143135398154101 ] } },
{ "type": "Feature", "properties": { "id": 854701589, "name": "Hazelbank Church", "amenity": "place_of_worship" }, "geometry": { "type": "Point", "coordinates": [ -6.685557896465151, 55.1264183365073 ] } },
{ "type": "Feature", "properties": { "id": 854754639, "name": "Coleraine Independent Methodist", "amenity": "place_of_worship" }, "geometry": { "type": "Point", "coordinates": [ -6.661707009427905, 55.153033616763253 ] } },
{ "type": "Feature", "properties": { "id": 855180984, "name": "The Seventh Day Adventist Church", "amenity": "place_of_worship" }, "geometry": { "type": "Point", "coordinates": [ -6.65924852105593, 55.118458548654537 ] } },
{ "type": "Feature", "properties": { "id": 857873560, "name": "Gospel Hall", "amenity": "place_of_worship" }, "geometry": { "type": "Point", "coordinates": [ -6.66692581688517, 55.134107666389824 ] } },
{ "type": "Feature", "properties": { "id": 867687894, "name": null, "amenity": "garden" }, "geometry": { "type": "Point", "coordinates": [ -6.666863515935961, 55.140403568659806 ] } },
{ "type": "Feature", "properties": { "id": 867738690, "name": null, "amenity": "pitch" }, "geometry": { "type": "Point", "coordinates": [ -6.672007692735405, 55.133867370611114 ] } },
{ "type": "Feature", "properties": { "id": 867780245, "name": "Saint Andrew's Church of Ireland", "amenity": "place_of_worship" }, "geometry": { "type": "Point", "coordinates": [ -6.660892044029132, 55.150302818838455 ] } },
{ "type": "Feature", "properties": { "id": 869082218, "name": null, "amenity": "park" }, "geometry": { "type": "Point", "coordinates": [ -6.677013660621588, 55.134363233411356 ] } },
{ "type": "Feature", "properties": { "id": 876170278, "name": null, "amenity": "parking" }, "geometry": { "type": "Point", "coordinates": [ -6.672859874632437, 55.13227727508928 ] } },
{ "type": "Feature", "properties": { "id": 876170283, "name": "Handy Park", "amenity": "parking" }, "geometry": { "type": "Point", "coordinates": [ -6.667442579558587, 55.132256599866281 ] } },
{ "type": "Feature", "properties": { "id": 876170287, "name": null, "amenity": "parking" }, "geometry": { "type": "Point", "coordinates": [ -6.672060913406299, 55.129673997473965 ] } },
{ "type": "Feature", "properties": { "id": 876170288, "name": null, "amenity": "parking" }, "geometry": { "type": "Point", "coordinates": [ -6.671786286702439, 55.129312343167989 ] } },
{ "type": "Feature", "properties": { "id": 876323694, "name": null, "amenity": "garden" }, "geometry": { "type": "Point", "coordinates": [ -6.670301455643232, 55.135229453035961 ] } },
{ "type": "Feature", "properties": { "id": 880807539, "name": null, "amenity": "parking" }, "geometry": { "type": "Point", "coordinates": [ -6.659648877214058, 55.136196342919 ] } },
{ "type": "Feature", "properties": { "id": 880807541, "name": null, "amenity": "pitch" }, "geometry": { "type": "Point", "coordinates": [ -6.659360970895923, 55.136700569204642 ] } },
{ "type": "Feature", "properties": { "id": 880807568, "name": null, "amenity": "parking" }, "geometry": { "type": "Point", "coordinates": [ -6.653931472049119, 55.134452410430065 ] } },
{ "type": "Feature", "properties": { "id": 880807572, "name": null, "amenity": "parking" }, "geometry": { "type": "Point", "coordinates": [ -6.65381352964322, 55.135358377387938 ] } },
{ "type": "Feature", "properties": { "id": 880807582, "name": null, "amenity": "playground" }, "geometry": { "type": "Point", "coordinates": [ -6.65456737699747, 55.136992475343298 ] } },
{ "type": "Feature", "properties": { "id": 880813865, "name": null, "amenity": "parking" }, "geometry": { "type": "Point", "coordinates": [ -6.657777111260561, 55.134435437920388 ] } },
{ "type": "Feature", "properties": { "id": 880813876, "name": null, "amenity": "parking" }, "geometry": { "type": "Point", "coordinates": [ -6.65279578969032, 55.136713980260801 ] } },
{ "type": "Feature", "properties": { "id": 880813889, "name": null, "amenity": "parking" }, "geometry": { "type": "Point", "coordinates": [ -6.648873349646494, 55.137091868072211 ] } },
{ "type": "Feature", "properties": { "id": 880813925, "name": null, "amenity": "parking" }, "geometry": { "type": "Point", "coordinates": [ -6.653935775862882, 55.136709070305656 ] } },
{ "type": "Feature", "properties": { "id": 881124584, "name": null, "amenity": "parking" }, "geometry": { "type": "Point", "coordinates": [ -6.649397618563547, 55.13872776171425 ] } },
{ "type": "Feature", "properties": { "id": 976024405, "name": "Christie Park", "amenity": "park" }, "geometry": { "type": "Point", "coordinates": [ -6.673602762879667, 55.126514431436114 ] } },
{ "type": "Feature", "properties": { "id": 991187727, "name": "Fidela Coffee Roasters", "amenity": "cafe" }, "geometry": { "type": "Point", "coordinates": [ -6.647285779425459, 55.130716362571796 ] } },
{ "type": "Feature", "properties": { "id": 991187728, "name": null, "amenity": "parking" }, "geometry": { "type": "Point", "coordinates": [ -6.646853184243122, 55.13069223982486 ] } },
{ "type": "Feature", "properties": { "id": 991360580, "name": "Ratheane Care Home", "amenity": "social_facility" }, "geometry": { "type": "Point", "coordinates": [ -6.658823336787927, 55.12020821502427 ] } },
{ "type": "Feature", "properties": { "id": 991559163, "name": null, "amenity": "pitch" }, "geometry": { "type": "Point", "coordinates": [ -6.658532900328659, 55.12282590011381 ] } },
{ "type": "Feature", "properties": { "id": 993682579, "name": null, "amenity": "parking" }, "geometry": { "type": "Point", "coordinates": [ -6.656965832195825, 55.117045257782848 ] } },
{ "type": "Feature", "properties": { "id": 993682580, "name": null, "amenity": "parking" }, "geometry": { "type": "Point", "coordinates": [ -6.656419352430099, 55.116769480216973 ] } },
{ "type": "Feature", "properties": { "id": 997460354, "name": "The Old Court House", "amenity": "bar" }, "geometry": { "type": "Point", "coordinates": [ -6.67800669961108, 55.132183600224437 ] } },
{ "type": "Feature", "properties": { "id": 997460357, "name": "Maxol", "amenity": "fuel" }, "geometry": { "type": "Point", "coordinates": [ -6.678517632803828, 55.132496489304451 ] } },
{ "type": "Feature", "properties": { "id": 997463452, "name": "Tim Hortons", "amenity": "cafe" }, "geometry": { "type": "Point", "coordinates": [ -6.673344628177285, 55.122425173309402 ] } },
{ "type": "Feature", "properties": { "id": 997463453, "name": null, "amenity": "parking" }, "geometry": { "type": "Point", "coordinates": [ -6.672941517357023, 55.122341606910723 ] } },
{ "type": "Feature", "properties": { "id": 999213332, "name": null, "amenity": "pitch" }, "geometry": { "type": "Point", "coordinates": [ -6.663114967948302, 55.139226710870261 ] } },
{ "type": "Feature", "properties": { "id": 999614765, "name": "Ballysally Youth and Community Centre", "amenity": "community_centre" }, "geometry": { "type": "Point", "coordinates": [ -6.660313690054107, 55.149414901990944 ] } },
{ "type": "Feature", "properties": { "id": 1000523339, "name": null, "amenity": "pitch" }, "geometry": { "type": "Point", "coordinates": [ -6.662815534891504, 55.150027173390974 ] } },
{ "type": "Feature", "properties": { "id": 1000523340, "name": null, "amenity": "pitch" }, "geometry": { "type": "Point", "coordinates": [ -6.662151124239137, 55.149557229727868 ] } },
{ "type": "Feature", "properties": { "id": 1000523341, "name": null, "amenity": "pitch" }, "geometry": { "type": "Point", "coordinates": [ -6.661471568705887, 55.14906405208032 ] } },
{ "type": "Feature", "properties": { "id": 1001142341, "name": "Cottage Care Home", "amenity": "social_facility" }, "geometry": { "type": "Point", "coordinates": [ -6.655310233269346, 55.127093725226821 ] } },
{ "type": "Feature", "properties": { "id": 1001749602, "name": "The Salvation Army Church and Community Centre", "amenity": "social_facility" }, "geometry": { "type": "Point", "coordinates": [ -6.653229049955733, 55.134124350025154 ] } },
{ "type": "Feature", "properties": { "id": 1001749603, "name": "Independent Methodist Church", "amenity": "place_of_worship" }, "geometry": { "type": "Point", "coordinates": [ -6.653898121702945, 55.134156789900835 ] } },
{ "type": "Feature", "properties": { "id": 1004874553, "name": null, "amenity": "pitch" }, "geometry": { "type": "Point", "coordinates": [ -6.687024232132194, 55.139478234755465 ] } },
{ "type": "Feature", "properties": { "id": 1004874554, "name": null, "amenity": "pitch" }, "geometry": { "type": "Point", "coordinates": [ -6.687006199988459, 55.139115249893869 ] } },
{ "type": "Feature", "properties": { "id": 1004874555, "name": null, "amenity": "pitch" }, "geometry": { "type": "Point", "coordinates": [ -6.686689699988457, 55.13944484989387 ] } },
{ "type": "Feature", "properties": { "id": 1004874556, "name": null, "amenity": "pitch" }, "geometry": { "type": "Point", "coordinates": [ -6.68643487535985, 55.139444860131533 ] } },
{ "type": "Feature", "properties": { "id": 1004874557, "name": null, "amenity": "pitch" }, "geometry": { "type": "Point", "coordinates": [ -6.686684325356613, 55.13915051012723 ] } },
{ "type": "Feature", "properties": { "id": 1004874558, "name": null, "amenity": "pitch" }, "geometry": { "type": "Point", "coordinates": [ -6.686429525359713, 55.139153560127035 ] } },
{ "type": "Feature", "properties": { "id": 1004874559, "name": null, "amenity": "pitch" }, "geometry": { "type": "Point", "coordinates": [ -6.686630623642156, 55.140630045367196 ] } },
{ "type": "Feature", "properties": { "id": 1006221374, "name": null, "amenity": "parking" }, "geometry": { "type": "Point", "coordinates": [ -6.668978549513389, 55.128173788376898 ] } },
{ "type": "Feature", "properties": { "id": 1006221603, "name": null, "amenity": "parking" }, "geometry": { "type": "Point", "coordinates": [ -6.669545186361471, 55.12804165999821 ] } },
{ "type": "Feature", "properties": { "id": 1006936162, "name": null, "amenity": "parking" }, "geometry": { "type": "Point", "coordinates": [ -6.67802752509663, 55.148934511758014 ] } },
{ "type": "Feature", "properties": { "id": 1009177358, "name": null, "amenity": "pitch" }, "geometry": { "type": "Point", "coordinates": [ -6.635329769852884, 55.118610538456693 ] } },
{ "type": "Feature", "properties": { "id": 1016887393, "name": "Rose Gardens Millburn Road", "amenity": "parking" }, "geometry": { "type": "Point", "coordinates": [ -6.670413379165414, 55.135457451777803 ] } },
{ "type": "Feature", "properties": { "id": 1016889403, "name": null, "amenity": "parking" }, "geometry": { "type": "Point", "coordinates": [ -6.663440308178078, 55.137000854494957 ] } },
{ "type": "Feature", "properties": { "id": 1016889404, "name": null, "amenity": "parking" }, "geometry": { "type": "Point", "coordinates": [ -6.664259562184653, 55.137112174467148 ] } },
{ "type": "Feature", "properties": { "id": 1016890457, "name": null, "amenity": "parking" }, "geometry": { "type": "Point", "coordinates": [ -6.667004377564139, 55.138610380658477 ] } },
{ "type": "Feature", "properties": { "id": 1018501169, "name": "Rainbows", "amenity": "kindergarten" }, "geometry": { "type": "Point", "coordinates": [ -6.641872449701401, 55.113832245127568 ] } },
{ "type": "Feature", "properties": { "id": 1018501170, "name": null, "amenity": "parking" }, "geometry": { "type": "Point", "coordinates": [ -6.641851863014565, 55.11396350477753 ] } },
{ "type": "Feature", "properties": { "id": 1018520212, "name": null, "amenity": "parking" }, "geometry": { "type": "Point", "coordinates": [ -6.685172463912449, 55.124858856625416 ] } },
{ "type": "Feature", "properties": { "id": 1025249381, "name": "Mulberry Bush Day Nursery", "amenity": "kindergarten" }, "geometry": { "type": "Point", "coordinates": [ -6.659864065427207, 55.120336798781445 ] } },
{ "type": "Feature", "properties": { "id": 1025249382, "name": null, "amenity": "parking" }, "geometry": { "type": "Point", "coordinates": [ -6.660010477784065, 55.12036653532865 ] } },
{ "type": "Feature", "properties": { "id": 1025249383, "name": "Mountfern Complex", "amenity": "hospital" }, "geometry": { "type": "Point", "coordinates": [ -6.657603913949997, 55.120804907471786 ] } },
{ "type": "Feature", "properties": { "id": 1026859060, "name": "Northern Regional College", "amenity": "college" }, "geometry": { "type": "Point", "coordinates": [ -6.664468381478347, 55.125295472773402 ] } },
{ "type": "Feature", "properties": { "id": 1027020869, "name": null, "amenity": "parking" }, "geometry": { "type": "Point", "coordinates": [ -6.668853123799511, 55.126461861104431 ] } },
{ "type": "Feature", "properties": { "id": 1027220682, "name": null, "amenity": "parking" }, "geometry": { "type": "Point", "coordinates": [ -6.664344455069213, 55.127772859942795 ] } },
{ "type": "Feature", "properties": { "id": 1027220684, "name": null, "amenity": "parking" }, "geometry": { "type": "Point", "coordinates": [ -6.666158693970144, 55.127860981752775 ] } },
{ "type": "Feature", "properties": { "id": 1035421372, "name": null, "amenity": "parking" }, "geometry": { "type": "Point", "coordinates": [ -6.656789219078322, 55.123545371632154 ] } },
{ "type": "Feature", "properties": { "id": 1035421373, "name": null, "amenity": "parking" }, "geometry": { "type": "Point", "coordinates": [ -6.656856362510898, 55.122995419948182 ] } },
{ "type": "Feature", "properties": { "id": 1035421374, "name": null, "amenity": "parking" }, "geometry": { "type": "Point", "coordinates": [ -6.655167628743617, 55.126597501302051 ] } },
{ "type": "Feature", "properties": { "id": 1047844549, "name": "Indoor Market", "amenity": "marketplace" }, "geometry": { "type": "Point", "coordinates": [ -6.663423647966523, 55.133483869479107 ] } },
{ "type": "Feature", "properties": { "id": 1047844550, "name": "Railway Place Car Park", "amenity": "parking" }, "geometry": { "type": "Point", "coordinates": [ -6.663782751269643, 55.133260198757647 ] } },
{ "type": "Feature", "properties": { "id": 1050239074, "name": null, "amenity": "parking" }, "geometry": { "type": "Point", "coordinates": [ -6.650344003004891, 55.121334262055306 ] } },
{ "type": "Feature", "properties": { "id": 1061553539, "name": null, "amenity": "pitch" }, "geometry": { "type": "Point", "coordinates": [ -6.706856133763503, 55.142924555967952 ] } },
{ "type": "Feature", "properties": { "id": 1073997533, "name": "Strand Road", "amenity": "parking" }, "geometry": { "type": "Point", "coordinates": [ -6.675012962292869, 55.128089578620703 ] } },
{ "type": "Feature", "properties": { "id": 1095096069, "name": "Ballysally Nursery School", "amenity": "kindergarten" }, "geometry": { "type": "Point", "coordinates": [ -6.660448799881387, 55.149907750057729 ] } },
{ "type": "Feature", "properties": { "id": 1100712174, "name": "Pitch 9", "amenity": "pitch" }, "geometry": { "type": "Point", "coordinates": [ -6.680377454170504, 55.152802069602174 ] } },
{ "type": "Feature", "properties": { "id": 1105595810, "name": "Car Park 10", "amenity": "parking" }, "geometry": { "type": "Point", "coordinates": [ -6.678145233839998, 55.150138952229831 ] } },
{ "type": "Feature", "properties": { "id": 1175634460, "name": "The Cornfield", "amenity": "park" }, "geometry": { "type": "Point", "coordinates": [ -6.660383550605217, 55.142231638165462 ] } },
{ "type": "Feature", "properties": { "id": 1176591541, "name": null, "amenity": "parking" }, "geometry": { "type": "Point", "coordinates": [ -6.651805360254681, 55.141655182096528 ] } },
{ "type": "Feature", "properties": { "id": 1176591542, "name": null, "amenity": "parking" }, "geometry": { "type": "Point", "coordinates": [ -6.651620612972765, 55.142467254629089 ] } },
{ "type": "Feature", "properties": { "id": 1195108074, "name": null, "amenity": "pitch" }, "geometry": { "type": "Point", "coordinates": [ -6.662916411870793, 55.148252135231417 ] } },
{ "type": "Feature", "properties": { "id": 1195108075, "name": "Elms Play Park", "amenity": "playground" }, "geometry": { "type": "Point", "coordinates": [ -6.66297517344252, 55.14863753362134 ] } },
{ "type": "Feature", "properties": { "id": 1195124668, "name": null, "amenity": "parking" }, "geometry": { "type": "Point", "coordinates": [ -6.659551747999526, 55.147013263702434 ] } },
{ "type": "Feature", "properties": { "id": 1195214324, "name": null, "amenity": "parking" }, "geometry": { "type": "Point", "coordinates": [ -6.659957867307429, 55.149640787539056 ] } },
{ "type": "Feature", "properties": { "id": 1223093533, "name": null, "amenity": "parking" }, "geometry": { "type": "Point", "coordinates": [ -6.651015044941762, 55.145467603368836 ] } },
{ "type": "Feature", "properties": { "id": 1223093535, "name": null, "amenity": "parking" }, "geometry": { "type": "Point", "coordinates": [ -6.661575757247983, 55.153029340615944 ] } },
{ "type": "Feature", "properties": { "id": 1223095061, "name": "Maxol", "amenity": "fuel" }, "geometry": { "type": "Point", "coordinates": [ -6.653094311546865, 55.133635310411265 ] } },
{ "type": "Feature", "properties": { "id": 1223095254, "name": null, "amenity": "parking" }, "geometry": { "type": "Point", "coordinates": [ -6.653233640554086, 55.131620960923023 ] } },
{ "type": "Feature", "properties": { "id": 1223192837, "name": null, "amenity": "parking" }, "geometry": { "type": "Point", "coordinates": [ -6.654076292900812, 55.133621038731292 ] } },
{ "type": "Feature", "properties": { "id": 1226032901, "name": null, "amenity": "parking" }, "geometry": { "type": "Point", "coordinates": [ -6.638512805483267, 55.11602815879742 ] } },
{ "type": "Feature", "properties": { "id": 1262142077, "name": "Coleraine Driving & Vehicle Test Centre", "amenity": "driver_training" }, "geometry": { "type": "Point", "coordinates": [ -6.649949652699722, 55.148484157367072 ] } },
{ "type": "Feature", "properties": { "id": 1262142084, "name": null, "amenity": "parking_space" }, "geometry": { "type": "Point", "coordinates": [ -6.65045782641676, 55.148708904666776 ] } },
{ "type": "Feature", "properties": { "id": 1262142085, "name": null, "amenity": "parking_space" }, "geometry": { "type": "Point", "coordinates": [ -6.650456710096285, 55.148332295007904 ] } },
{ "type": "Feature", "properties": { "id": 1262142086, "name": null, "amenity": "parking_space" }, "geometry": { "type": "Point", "coordinates": [ -6.650339837815246, 55.147941674790147 ] } },
{ "type": "Feature", "properties": { "id": 1264219147, "name": null, "amenity": "parking" }, "geometry": { "type": "Point", "coordinates": [ -6.672889278522691, 55.153811374257508 ] } },
{ "type": "Feature", "properties": { "id": 1307851754, "name": "Coleraine Bus & Rail Centre", "amenity": "bus_station" }, "geometry": { "type": "Point", "coordinates": [ -6.662526284205758, 55.133393068672397 ] } },
{ "type": "Feature", "properties": { "id": 1308022952, "name": null, "amenity": "shelter" }, "geometry": { "type": "Point", "coordinates": [ -6.681521700011617, 55.119051000001164 ] } },
{ "type": "Feature", "properties": { "id": 1312299651, "name": null, "amenity": "parking_space" }, "geometry": { "type": "Point", "coordinates": [ -6.662008659368023, 55.131791800034534 ] } },
{ "type": "Feature", "properties": { "id": 1312299652, "name": null, "amenity": "parking_space" }, "geometry": { "type": "Point", "coordinates": [ -6.662178909154528, 55.131716141790676 ] } },
{ "type": "Feature", "properties": { "id": 1313000016, "name": null, "amenity": "shelter" }, "geometry": { "type": "Point", "coordinates": [ -6.671313600008783, 55.133692150000314 ] } },
{ "type": "Feature", "properties": { "id": 1313000017, "name": null, "amenity": "shelter" }, "geometry": { "type": "Point", "coordinates": [ -6.67140870000878, 55.133600750000319 ] } },
{ "type": "Feature", "properties": { "id": 1314054703, "name": null, "amenity": "parking" }, "geometry": { "type": "Point", "coordinates": [ -6.682431745582714, 55.11922307872679 ] } },
{ "type": "Feature", "properties": { "id": 1327085070, "name": null, "amenity": "parking" }, "geometry": { "type": "Point", "coordinates": [ -6.678706852462057, 55.148899671843864 ] } },
{ "type": "Feature", "properties": { "id": 1328436218, "name": null, "amenity": "parking" }, "geometry": { "type": "Point", "coordinates": [ -6.647960455935934, 55.128683134312851 ] } },
{ "type": "Feature", "properties": { "id": 1336800068, "name": "Octagon Hall", "amenity": "concert_hall" }, "geometry": { "type": "Point", "coordinates": [ -6.677329452055062, 55.149037151374522 ] } },
{ "type": "Feature", "properties": { "id": 1339485361, "name": null, "amenity": "parking" }, "geometry": { "type": "Point", "coordinates": [ -6.663968114254712, 55.122660210166323 ] } },
{ "type": "Feature", "properties": { "id": 1342835430, "name": null, "amenity": "parking" }, "geometry": { "type": "Point", "coordinates": [ -6.676014038999855, 55.145678305457906 ] } },
{ "type": "Feature", "properties": { "id": 1342835431, "name": null, "amenity": "parking" }, "geometry": { "type": "Point", "coordinates": [ -6.676068055003284, 55.146133940085996 ] } },